stop_id,stop_name,zone_id,stop_lat,stop_lon
iLqH7CzM,Bandlaguda Bus Depot,Bandlaguda Depot,17.365524,78.588888
08b8x8vw,Indu Aranya Pallavi Twd Nagole,Indu Aranya Pallavi,17.36652094499279,78.58266368282744
v3zhTesh,Mathuguda Twd Uppal,Mathuguda,17.367229185605,78.57949491349268
HD2fF5rU,Anand Nagar Twd Uppal,Anand Nagar,17.369556362236757,78.57378255660541
KQKA2qfQ,Bandlaguda Twd Uppal,Bandlaguda,17.3714504482442,78.5695591354593
IWRD9yNc,Arunodaya Nagar Colony Twd Nagole,Arunodaya Nagar Nagole,17.373451510712716,78.56308490088483
dI3DavsK,Nagole X Road Twd Dilsukhnagar,Nagole X Rds,17.3762743180891,78.5575283651023
Ft61OdNw,New Nagol Twd Dilsukhnagar,New Nagole,17.3749449249614,78.553442192644
aKvzfspC,Mohan Nagar Twd Dilsukhnagar,Mohan Nagar - Dsnr,17.3738114359874,78.54994603335
bFryTLIT,Commercial Tax Colony Twd Dilsukhnagar,Commercial Tax Colony,17.3730331943326,78.5476084632825
rhZ64HFF,Sbi Colony Twd Dilsukhnagar,Sbi Colony Kothapet,17.372042641477062,78.54313462972644
URqOZwMM,Kothapet Twd Mgbs,Kothapet X Road,17.367130204708886,78.540404143283
85BLnSI1,Fruit Market Twd Mgbs,Kothapet-Fruit Market,17.368251445011527,78.53474736213686
nCGtoaLy,Chaitanyapuri Twd Mgbs,Chaithanyapuri,17.3683129496413,78.5313431392741
4URl0L5Y,Dilsukhnagar Twd Mgbs,Dilsukhnagar,17.36844294769713,78.52318523008526
MhuyshjB,Dilsukhnagar Twd Kothapet,Dilsukhnagar,17.368620072554712,78.52366448257763
lHmEewAT,Chaitanyapuri  Twd Hayatnagar,Chaithanyapuri,17.368481777100715,78.53261232524069
h9voTH7m,Fruit Market Twd Hayatnagar,Kothapet-Fruit Market,17.368517676089354,78.5350263118744
z4qkq5ED,Kothapet Twd Nagole,Kothapet X Road,17.368356464152875,78.53832005925486
keq8UOJD,Sbi Colony Twd Nagole,Sbi Colony Kothapet,17.372158475245016,78.54343704879285
odJsjHRN,Commercial Tax Colony Twd Nagol,Commercial Tax Colony,17.3730728719907,78.54762455653652
1SW9jqrD,Mohan Nagar Twd Nagol,Mohan Nagar - Dsnr,17.3739085622595,78.5501310846838
XcABgPn7,New Nagol Twd Nagol,New-Nagole,17.375012396319,78.553405196435
AnLTMfwA,Nagole X Road Twd Uppal,Nagole X Rds,17.3767810792273,78.5577533319177
SPObbJBG,Mamatha Nagar Twd Jbs,Mamatha Nagar,17.380390164725966,78.55801686590104
igXYuJJL,Nagole Metro Station Twd Uppal,Nagole Metro Station,17.39052648662781,78.5587478043404
hRpx46aJ,Uppal X Road Twd Secunderabad,Uppal X Roads,17.401261161081226,78.56007411298083
bHfuhRVs,Uppal X Roads Twd Rgia,Uppal X Roads,17.399935344178544,78.56028199195865
5YoLyTS1,Nagole Metro Station Twd Lb Nagar,Nagole Metro Station,17.39055719841084,78.55892480737447
8ayey0mt,Kothapet Twd Mgbs,Kothapet X Road,17.368062004757,78.53807865982121
lUAF2lZG,Nagole X Road Twd Bandlaguda Depot,Nagole X Road,17.3764837439521,78.5587936450692
b08KweJu,Arunodaya Nagar Colony Twd Bandlaguda,Arunodaya Nagar Nagole,17.37346944317409,78.56309361744178
1dtzn5PT,Bandlaguda  Twd  Bandlagida Depot,Bandlaguda,17.3714734741342,78.5694133809192
qFwvd68S,Anand Nagar Twd Bandlagudadepot,Anand Nagar,17.3696856485073,78.5736080581774
F2TLE5hK,Mathuguda Twd Depot,Mathuguda,17.3674663143257,78.5791705934952
aR45qptZ,Indu Aranya Pallavi Twd Bandlaguda Depot,Indu Aranya Pallavi,17.366520934109882,78.58275018630466
HXArDftH,Corporate Bhavan Twd Jaipuri Colony,Corporate Bhavan,17.370545553986176,78.589339250817
6f304ebf,Drf Twd Jaipuri Colony,Drf,17.38201047701414,78.58026981353761
lAwrKQ87,Jai Puri Colony Twd Bandlaguda,Jai Puri Colony,17.37868028326329,78.57201128995817
CWHLIfmF,Moosarambagh Twd Koti,Moosarambhagh,17.369603091248457,78.51577877110545
sZoLwKhA,Super Bazar Twd Koti,Super Bazar Bus Stop,17.371934,78.50992
eZaYndv0,Malakpet Chermas Twd Koti,Chermas Malakpet,17.37300258761809,78.50529670715333
lvN5ZKax,Nalgonda X Roads Twd Koti,Nalgonda X Road,17.374180270823153,78.49971242465271
GLIOn202,Jail Garden Twd Koti,Jail Garden,17.377272367082867,78.49233359098436
XFG29jWC,Mgbs Exit Twd Afzalgunj,Mgbs,17.37693170687969,78.48638709623634
8ACyyVNb,Darul Shifa Twd Charminar,Darul Shifa,17.37326863565872,78.4829860900961
Ij8M0H6H,Afzalgunj Twd Charminar,Afzalgunj,17.37330715166882,78.47693240773341
ljBZ4Tf2,Darul Shifa Twd Koti,Darul Shifa,17.373673828320236,78.48325973929376
mWeMEay9,Mgbs Exit Twd Chadarghat,Mgbs,17.37695218135198,78.48626639054203
bv5t1O6B,Chadarghat Twd Dilshuknagar,Chadarghat,17.377081,78.49577
JdUrmkif,Nalgonda X Road Twd Dilshuknagar,Nalgonda X Road,17.375289,78.498622
JCZL3DCn,Malakpet Twd Dilsuknagar,Old Malakpet,17.37334812132625,78.50423722183466
fFjh9l4f,Super Bazar Twd Dilsukhnagar,Super Bazar Bus Stop,17.3724598986845,78.5091124847531
UQ45gtbS,Moosarambagh Twd Dilshuknagar,Moosarambhagh,17.369514840774187,78.51676137047211
27ZkTjPB,Bandlguda Twd Jaipuri Colony,Bandlaguda,17.378936222375685,78.56918088908476
zHbDoJEx,Jaipuri Colony Twd Drf,Jai Puri Colony,17.37891259868231,78.5720783419552
gkVhjSin,Drf Twd Bandlaguda Depot,Drf,17.382059111758405,78.58015716075899
Mnr10S9i,Uppal Bus Station,Uppal Bus Stop,17.40165529289952,78.56875908447208
9lo4UeiJ,Beerappagadda Twd Ecil,Beerapagadda,17.405935929948104,78.56393918395044
cGWFArDm,Ganesh Nagar Church Twd Ecil,Ganesh Nagar Church,17.410915153218912,78.56438040733339
fFaQHoF0,Adarsh Nagar Twd Uppal,Adarshnagar Uppal,17.41378156819491,78.56505632400514
GCC2DDnV,Chilkanagar Twd Kushaiguda,Chilkanagar,17.41919692229825,78.56505632400514
lHPvnE32,Hema Nagar Twd Kushaiguda,Hema Nagar-Uppal,17.421,78.564
ki05OEh0,Post Office Twd Kushaiguda,Post Office-Nacharam,17.431,78.559
hjFi7eQB,Nacharam X Rd Twd Chengicherla,Nacharam X Road,17.43363562648746,78.55445891494266
U3ikAqGd,Delhi Tubes Twd Mallapur,Delhi Tubes Nacharam,17.438300227071,78.5583394443616
LwrbPeVu,Janapriya Twd Ecil,Janapriya - Mallapur,17.44177321774534,78.56528164877854
S6LmWE5N,Mallapur Bus Stop Twd Ecil,Mallapur,17.4454882815445,78.56740593910219
YMEKiiCq,Noma Twd Chengicharla,Noma Function Hall Nacharam,17.44719501610695,78.57199788093568
pLgbAwvD,Ashok Nagar Twd Ecil,Ashoknagar-Mallapur,17.450004551048462,78.58082905567282
L9yKLGu1,Hcl X Road Twd Ecil,Hcl X Roads,17.455257780650488,78.58136951923372
giCRzBi8,Ecil Factory Twd Mallapur,Ecil Factory,17.467405969913383,78.57388615792333
PRepdcnz,Ecil Bus Terminal,Ecil X Roads,17.472533417846755,78.57006316234603
Q2XxpKE2,Kushaiguda Twd Ghatkesar,Kushaiguda,17.480318357777065,78.57501536607744
4wFW2Us9,Ecil X Road Twd Uppal,Ecil X Roads,17.472059835509484,78.57107788196248
ypgflX0a,Hcl X Road Twd Mallapur,Hcl X Roads,17.45524355822553,78.58147411787685
ZC9cuPhg,Ashok Nagar Twd Uppal,Ashoknagar-Mallapur,17.45,78.581
YAQJf9bd,Noma Twd Habsiguda,Noma Function Hall Nacharam,17.4469851935289,78.57228219509126
f6oeVXYR,Mallapur Twd Tarnaka,Mallapur,17.444833218758916,78.56734961271287
vFTKha5O,Janapriya Twd Uppal,Janapriya - Mallapur,17.44214896617809,78.56608830392362
x7w566Y0,Delhi Tubes Twd Nacharam,Delhi Tubes Nacharam,17.4380993820983,78.558230994496
iicT2HB0,Nacharam X Road Twd Uppal,Nacharam X Road,17.43346651583396,78.55520992061963
o8SEMKee,Post Office Twd Ecil,Post Office-Nacharam,17.427790469158914,78.56065214250157
D6hCS0ep,Hemanagar Twd Uppal,Hema Nagar-Uppal,17.421200871093813,78.56440993963322
XQbDOfeo,Chilkanagar Twd Uppal,Chilkanagar,17.41905104101156,78.56528699324836
tFiy24uk,Church Twd Uppal,Ganesh Nagar Church,17.410912593899738,78.56444478034975
dfCxpNyn,Beerappagadda Twd Uppal,Beerapagadda,17.405908416515366,78.56401629745962
PjtVmWLt,Uppal Gandhi Statue Twd Uppal,Uppal Gandhi Statue,17.40152285209532,78.56604605913164
GshwIwZf,Uppal Gandhi Statue Twd Mehdipatnam,Uppal Gandhi Statue,17.401419832443395,78.56580466032031
KQKhMBSB,Uppal X Road Junction Twd Lb Nagar,Uppal X Roads,17.401430068824652,78.56090962933486
qVTY9k3k,Uppal X Road Twd Ghatkesar,Uppal X Roads,17.40158108,78.56194295
80dBZEhn,Adarsh Nagar Twd Kushaiguda,Adarshnagar Uppal,17.414009342130075,78.56490343150288
hTYT4HDY,Ecil Factory Twd Ecil X Road,Ecil Factory,17.46724739102869,78.5738915205002
vI7Y9Kh7,Post Office Twd Uppal,Post Office-Nacharam,17.42801034487274,78.56070040516715
sJVjEk53,Nagole X Road Twd Rgia,Nagole X Rds,17.37622157097026,78.55804368873083
UsvPMDtj,Snehapuri Colony Twd Lb Nagar,Snehapuri - Lb Nagar,17.368836374808627,78.55739058461732
j5uk5YHU,Alkapuri X Road Twd Lbnagar,Alkapuri 'X' Rds,17.36402244176294,78.55731279756087
KEmdPCGs,Kamineni Hospital Twd Lb Nagar,Kamineni Hospetal-Lb Nagar,17.3524400960622,78.5556759154176
4veeZf8l,Lb Nagar Twd Ibp Dist Bus Stop,Lb Nagar,17.345932737778206,78.55058848857881
MkmJffCr,Sagar Ring Road Twd Devarkonda,Sagar Ring Road,17.340736,78.548133
wkqXnQtG,Omkar Nagar Twd Ibrahimpatnam,Omkar Nagar,17.337184,78.550306
SR8fs7TH,Santhosh Matha Temple Twd Ibrahimpatnam,Santhoshi Matha Temple-Hasthinapuram North,17.332301582002888,78.5529702929845
MNGipNAN,Hastinapur Twd Ibrahimpatnam,Hastinapur,17.32890508244439,78.5546265599295
wELAag5b,Hastinapur Naveena College Twd Ibrahimpatnam,Hastinapur,17.326919798663077,78.5564250074453
v7PTHC52,Bn Reddy Twd Ibrahimpatnam,Bn Reddy Nagar,17.319952245526586,78.56061461635161
rIYonRH8,Sagar Complex Twd Ibrahimpatnam,Sagar Complex,17.313,78.563557
GN2hoK0u,Gurramguda X Road Twd Ibrahimpatnam,Gurramguda X Rd,17.30458041748832,78.57089281673369
LGG5JFs6,Injapur Twd Ibrahimpatnam,Injapur X Roads,17.2987555934125,78.5829569477913
InPIS0f2,Yamjal Katta Maisamma Twd Ibrahimpatnam,Katta Mysamma,17.291827147802287,78.5871147885397
IBjfvmSP,Rokkam Sathi Reddy Garden Twd  Ibrahimpatnam,Sathireddy Garden,17.279626230124038,78.58724354079571
Z6QHCsDT,Turkyamjal Twd Ibrahimpatnam,Turkayamjal-Hayathnagar,17.272836612960912,78.5890915989876
jKR8nPF7,Ragannaguda Twd Ibrahimpatnam,Ragannaguda,17.26204309000403,78.58610630035402
KVmOms9E,Manneguda X Road Twd Ibrahimpatnam,Manneguda X Rd-Ibp,17.2552163618687,78.5857859549052
cdasbxjl,Bongloor X Road Twd Devarkonda,Bongloor X Rd-Ibp,17.231374,78.58928
tb7RUzaa,Koheda X Road Twd Ibrahimpatnam,Koheda X Road-Ibp,17.219736826463507,78.60009683461507
SBpjAyzx,Mangalpalle Twd Ibrahimpatnam,Mangalpalle-Ibrahimpatnam,17.20893515316952,78.595070241742
gw9FCBOl,Sri Indu College Twd Ibrahimpatnam,Sri Indu College,17.213818523696336,78.61122240614016
DHA8B4mY,Sheriguda,Sheriguda -Ibp,17.208482,78.61978
Nm7fwnQL,Uppariguda X Road Twd Ibrahimpatnam,Uppariguda X Road,17.2052610691642,78.6199453264384
4FGrwyeo,Uppariguda X Road Mile Stone Twd Ibp,Milestone - Uppariguda,17.198639,78.632917
ysfhkpHS,Ibp Old Bus Stand,Ibrahimpatnam Old Bus Station,17.197215601813685,78.65003407720262
XwupUlwk,Ibrahimpatnam Bus Station,Ibrahimpatnam,17.1914372027429,78.6476646736264
hy9XDQtt,Kanapur X Road Twd Mall,Khanapur X Roads,17.175368174130146,78.65471721151408
LGaCmjm6,Gurunanak Institue Of Technology Twd Mall,Gnit,17.16263163687153,78.66054027977022
Vy4phlJE,Gurunanak Institue Of Technology Twd Ibrahimpatnam,Gnit,17.161952466495475,78.66083265315504
xOawOv0d,Kanapur X Road Twd Ibrahimpatnam,Khanapur X Roads,17.175229699047627,78.65458846490243
Fvtj9WnS,Mile Stone,Ibrahimpatnam Mile Stone,17.196787,78.635991
t8yMVHEy,Uppariguda X Road  Twd Mgbs,Uppariguda X Road,17.2052412122423,78.6196844816119
V5RBnbfT,Sheriguda Twd Hyderabad,Sheriguda -Ibp,17.208683,78.619542
12jVZctl,Sri Indu College Twd Mgbs,Sri Indu College,17.213672468576657,78.61050100631877
y1F1cZC3,Mangalpally X Road Twd Mgbs,Mangalpally X Road - Ibp,17.214889547059556,78.605139269899
b9waiyQ0,Koheda X Road Twd Mgbs,Koheda X Road-Ibp,17.21984068995129,78.5994325357924
X8CaE3i1,Bongloor X Road Twd Hyderabad,Bongloor X Rd-Ibp,17.231567,78.588984
1s7LOTOC,Manneguda X Road Twd Yamjal,Manneguda X Rd-Ibp,17.2552528631065,78.5856411156192
lNLj4zN4,Ragannaguda Twd Jbs,Ragannaguda,17.262394000903527,78.58596682548524
ZGt2Dmoa,Brahmanpally X Road Twd Hyderabad,Brahmanapally X Roads,17.266848306704667,78.58890787723841
pxpLADcq,Turkyamjal Twd Mgbs,Turkayamjal-Hayathnagar,17.273584378472464,78.58874559402467
A1WvIo0L,Rokkam Sathi Reddy Garden Twd  Hyderabad,Sathireddy Garden,17.279595497566618,78.58696462653107
fbXMzuz9,Yamjal Katta Maisamma Twd Hyderabad,Katta Mysamma,17.291770815428187,78.58688145875932
gt0N9y5A,Injapur  Twd Mgbs,Injapur X Roads,17.298892336755,78.5824224037872
A4Xl5Xo2,Gurramguda X Road Twd Lb Nagar,Gurramguda X Rd,17.30452405811987,78.57042068427783
0GqsyDdN,Sagar Complex Twd Bn Reddy,Sagar Complex,17.312109012995656,78.5637152194977
MMOWOPw6,Bn Reddy Twd Hyderabad,Bn Reddy Nagar,17.320458,78.56039
s1ciYFx5,Hastinapur Naveena College Twd Lb Nagar,Hastinapur,17.326891,78.556174
GG8fV7fI,Hastinapuram Twd Mgbs,Hastinapur,17.32947233767887,78.55371058765128
YKUfHmfJ,Santhosh Matha Temple Twd Hyderabad,Santhoshi Matha Temple-Hasthinapuram North,17.332662,78.552672
XciC9kAE,Omkar Nagar Twd Lb Nagar,Omkar Nagar,17.336996,78.550159
ixaQ8kQB,Sagar Ring Road Twd Uppal,Sagar Ring Road,17.342962859053923,78.54714722076598
jNMgv2Al,Lb Nagar  X Road Twd Jbs,Lb Nagar,17.347097587375245,78.55122149337176
Ap1EukzU,Kamineni Hospital Twd Jbs,Kamineni Hospetal-Lb Nagar,17.3533656317548,78.5555738449488
qPtExEEi,Alkapuri X Roads Twd Jbs,Alkapuri 'X' Rds,17.365287,78.556949
BCMwFXGv,Snehapuri Twd Secunderabad,Snehapuri - Lb Nagar,17.369106411255903,78.55721623154713
fP96Ktrp,Ibrahimpatnam Bus Depot,Mile Stone,17.186761130107094,78.64904165267946
A1q2izKE,Mangalpally X Road Twd Ibrahimpatnam,Mangalpally X Road,17.2150013751192,78.6053006915175
bL2YDx7l,Sagar Ring Road Twd Mehdipatnam,Sagar X Road,17.34152301052674,78.54617826279625
Ec33x1z9,Tkr Kaman Twd Mehdipatnam,Tkr Kaman,17.33746810967469,78.53614009844824
JSxAzCo9,Gayatri Nagar X Road Twd Mehdipatnam,Gayatri Nagar X Road,17.337499,78.531372
wITcyOuZ,Manda Mallamma Twd Mehdipatnam,Manda Mallama X Road,17.3396787022642,78.5235848240254
vBctYwrb,Champapet X Road Twd Mehdipatnam,Champapet,17.3422335753195,78.5155184187164
DmBjyR5X,Owaisi Hospital Twd Midhani,Owaisi Hospital,17.34336101721788,78.5068846194131
wxwf67W2,Pisal Banda,Midhani Bus Stop,17.33995386996398,78.50379250947658
IW2PYgMJ,Drdl Gate Twd Hyderabad,Drdl Gate Bus Stop,17.33687699268252,78.49671766213868
0JAlzxpT,Hafiz Baba Nagar Twd Mehdipatnam,Hafiz Baba Nagar Hyd Bus Stop,17.331896841146534,78.49041581767807
z5xmnEt6,Phoolbagh Twd Mehdipatnam,Phool Bagh,17.330124560047942,78.48596337683179
XCkw4Nyw,Dlrl Twd Mehdipatnam,Dlrl,17.32871884322,78.48272631526652
XFtDDMjz,Chandrayangutta Twd Mehdipatnam,Chandrayangutta,17.326594727260122,78.47650155065935
QQCGeB8G,Hashamabad Twd Aramghar,Hashamaba,17.3221181066863,78.46867650112489
CCbehcS7,Bandlaguda Twd Aramghar,Bandlaguda,17.316688758155205,78.46638858214433
It0A5Z2C,Palle Cheruvutwd Aramghar,Palle Cheruvu,17.315601828423915,78.45598697667556
kD4VEJOZ,Mailardevpally Twd Mehdipatnam,Mailardevpally,17.316097270810392,78.44940753362413
Pxmg1yJe,Durganagar X Road Twd Mehdipatnam,Durga Nagar,17.314699,78.443284
fsmqVQlp,Aramghar Twd Mehdipatnam,Aramghar X Roads,17.32192393667301,78.43133613755046
75l9xhCY,Aramghar Twd Mehadipatnam,Shivarampally X Road,17.32705585568292,78.42534106232553
GURjyKYg,Weaker Section Twd Mehdipatnam,Ws Colony,17.332648837164182,78.42663623318683
3awNd1Nt,Dairy Farm Upperpally Twd Mehdipatnam,Dairy Farm,17.345952260049163,78.4157317129813
VRr55gta,Upperpally X Road Twd Mehdipatnam,Upperpally,17.356011771962,78.422264961366
N3JEm38W,Hyderguda Twd Mehdipatnam,Hyderguda X Road,17.36384063570592,78.4280893110761
8M15jHYl,Attapur Twd Mehdipatnam,Attapur,17.37022384972442,78.42919841408731
pDqOfr7l,Jyothi Nagar Twd Mp,Jyothi Nagar,17.3826904206909,78.4293640526899
mJ8ZuY6u,Gudimalkapur X Road Twd Mehdipatnam,Gudi Malkapur X Roads,17.38815635753059,78.42959406341002
I78eTakJ,Rethibowli Ring Road P&T Colony Twd Gachibowli,Rethibowli,17.395705935116727,78.43107462758023
q9jjNdnh,Mehdipatnam Twd Secundrabad,Mehdipatnam,17.395273919150057,78.43979619137296
NUmq3A4e,Mehdipatnam,Mehdipatnam,17.39472517650309,78.44017263294585
5bo1bbrm,Rethibowli Twd Uppal,Rethibowli,17.394408,78.43122
LeH2BEeI,Gudimalkapur X Road Twd Aramghar,Gudi Malkapur X Roads,17.38727328328893,78.42977377847339
N5qUm2ju,Jyothi Nagar Twd Upl,Jyothi Nagar,17.382697788154786,78.42958463140629
UnXhYFnH,Attapur Twd Twd Uppal,Attapur,17.370238,78.42947
DsuY79Ab,Hyderguda Twd Aramghar,Hyderguda X Road,17.363851535878503,78.4283008815172
fZp54Q46,Upperpally X Road Twd Shamshabad,Upperpally,17.3556778255234,78.4223488723185
D5gSvozj,Dairy Farm Upperpally Twd Uppal,Dairy Farm,17.345415,78.416081
ChmUll1G,Weaker Section Twd Uppal,Ws Colony,17.332556978150567,78.42688534408809
ClOYL7ib,Shivrampally Twd Aramghar,Shivarampally X Road,17.3266662961617,78.4257102254793
6xxROlUL,Aramghar Twd Chandrayangutta,Aramghar X Roads,17.321538419417156,78.43245572451137
EhWvEilH,Durganagar X Road Twd Uppal,Durga Nagar,17.314632558937895,78.44482093957947
IErfLDms,Mailardevpally Twd Uppal,Mailardevpally,17.316298905629687,78.44968915420817
qCwK5b48,Palle Cheruvu Twd Lb Nagar,Palle Cheruvu,17.315775952591306,78.45598697922499
SA0QTWBz,Bandlaguda Twd Lb Nagar,Bandlaguda,17.316728512170705,78.4662330310163
5VXNBKMa,Hashamabad Twd Lb Nagar,Hashamaba,17.3222416985113,78.4684330382144
cu6mRmR3,Chandrayangutta Twd Uppal,Chandrayangutta,17.326837842961645,78.47647119928365
TzhOElvd,Dlrl Twd Uppal,Dlrl,17.3290290715121,78.4825707895458
jMbdev6Y,Phoolbagh Twd Koti,Phool Bagh,17.330196823765903,78.48577022760603
VeCqKQnI,Hafiz Baba Nagar Twd Upl,Hafiz Baba Nagar Hyd Bus Stop,17.331978648031413,78.49034608211676
cJeCRNPE,Drdl Gate Twd Karmanghat,Drdl Gate Bus Stop,17.336944,78.496292
f251qAmF,Pisalbanda Twd Uppal,Pisal Banda,17.3408743479249,78.5025040642768
t6jFs2vZ,Owaisi Hospital Twd Uppal,Owaisi Hospital,17.34353632034257,78.50671813138709
xgj1wjWO,Champapet X Road Twd Uppal,Champapet,17.342417511196526,78.51589344427451
N2jyRLqT,Manda Mallamma Twd Uppal,Manda Mallama X Road,17.3397375894995,78.52422050758308
sdwKwL7H,Gayatri Nagar X Road Twd Uppal,Gayatri Nagar X Road,17.337745,78.531394
rCbqbiB4,Tkr Kaman Twd Uppal,Tkr Kaman,17.3377092436284,78.53618484715689
yH2yDVEE,Uppal X Road Twd Uppal,Uppal X Road,17.402008609741326,78.55898384353196
C7MKjOpe,Rajeev Gandhi Nagar Twd Lb Nagar,Rajeev Gandhi Nagar,17.3596592052439,78.5578143596649
BMX7A8jV,Aramghar Twd Rgia,Aramghar X Roads,17.32124787328117,78.43160306804967
buDaArKj,Rajeev Gandhi Nagar Twd Jbs,Rajeev Gandhi Nagar,17.35991872206882,78.55758771474177
LI0lmnt7,Tattiannaram Twd R.K.Nagar,Tatianaram 1,17.36697788047754,78.59792545374077
EEsrKphR,Rk Nagar Twd Maaripally Village,Rk Nagar-Marripalle,17.372,78.605
NUyS4TnK,Marripalle Village,Marripally,17.382,78.607
ndWxoXmZ,Rk Nagar Twd Bandlaguda Depot,Rk Nagar-Marripalle,17.381232316802418,78.60660441115587
9FCp4dE3,Thattiannaram Twd Bandlaguda Depot,Tatianaram 1,17.367,78.598
puLeqHhl,Chadarghat Twd Koti,Chaderghat,17.377216051694724,78.49302023649217
9ahqTeb2,Koti Women'S College,Womens College Koti,17.38495030045996,78.48847925676144
Lv5arNUP,South End Park Twd Gsi,South End Park,17.356910665865442,78.56649398803712
YkGtLdxM,South End Park,South End Park,17.35648693543903,78.56602999994361
VvpdOUmy,Mansoorabad Twd Lb Nagar,Mansoorabad,17.352673685554755,78.56267988545898
H34GqhjL,Ntr Nagar Twd Dilsuknagar,Ntr Nagar Lb Nagar,17.3557181903671,78.54530411806
ygPilzwX,Dwaraka Nagar Ashtalakshmi Temple Twd Lbnagar,Ashtalakshmi Temple-Kothapet,17.362645,78.543864
ELFLyHem,Mgbs,Mgbs,17.366,78.476
7NKKJ9nu,Dabilpur Twd Darushifa,Dabilpur Railway Station,17.366400405168775,78.49030889462381
RvkZZP0d,Afzalgunj Twd Nampally,Afzalgunj,17.3734,78.4759
TqbzRh9L,Afzalgunj Twd Koti,Afzalgunj,17.374,78.476
YWI4SVfO,Jail Garden Twd Dilshuknagar,Jail Garden,17.37731076392851,78.49377125501633
AqZ2QeCT,Kothapet Twd Hayatnagar,Kothapet X Road,17.36683421,78.54130168
QHrSIczA,Ntr Nagar Twd Hayatnagar,Ntr Nagar Lb Nagar,17.3559666460859,78.5456078099895
dehrKCON,Gsi Gate Twd Bandlaguda,Gsi Gate,17.36615737570008,78.58379402186118
j03fTpZX,Dwaraka Nagar Ashtalakshmi Temple Twd Dilshuknagar,Ashtalakshmi Temple-Kothapet,17.362788,78.543466
tRKrXYoZ,Womens College Twd Koti,Womens College Koti,17.384808257142353,78.48762095763595
PdS5x1iC,Koti Medical College,Koti,17.38309842228746,78.48281983633859
QjPFvUK8,Abids Gpo Twd Nampally,Abids Gpo,17.38756755284601,78.47617327807579
0Yr3hLAU,Nampally Railway Station Twd Ameerpet,Nampally Railway Station,17.39215949442458,78.47004978666432
d2BfiTmX,Assembly Twd Miyapur,Assembly,17.400243,78.470014
USn7tbeB,Lakdikapool Twd Lingampally,Lakdikapool,17.403609,78.464974
ZNUKsMix,Secretariat Twd Jbs,Secretariat Lic Building,17.408117,78.471823
WPJcfJaq,Secretariat Twd Rgia,Secretariat Lic Building,17.40765263199,78.47141470760099
nV1IXc4T,Rbi Birlamandir Twd Cbs,Birla Mandir,17.40606773842893,78.46732735633852
9MesXC3c,Mahavir Hospital Twd Mehdipatnam,Mahaveer Hospital,17.402745621729753,78.4583152380295
xLkxr76E,Nmdc Twd Mehdipatnam,Nmdc,17.398778406631845,78.44944775104524
gV9iNXAG,Sarojini Devi Hospital Twd Lingampally,Sarojini Devi Hospital,17.398543037738683,78.44446688890459
mswkY15F,Budwel Twd Aramghar,Budwel,17.342238935194214,78.42247009277344
ctHg6lcm,Lb Nagar X Road Twd Dilsuknagar,Lb Nagar,17.34698733661979,78.55012713856546
qbtDyPmY,Uppal X Road  Twd Jagathgirigutta,Uppal X Road,17.4020398586715,78.5595762357115
HRc9q9cv,Survey Of India Twd Secunderabad,Survey Of India,17.405683,78.555518
h14pP8Q5,Ngri Twd Jbs,Ngri,17.4154051662213,78.5453817445992
Vu61jLWF,Habsiguda Twd Tarnaka,Habsiguda,17.421528,78.538962
jyBSJxcj,Tarnaka Twd Secunderabad,Tarnaka X Road,17.42570613900953,78.53222742494877
B9wleFxF,Railway Degree College Twd Secunderabad Rly Station,Railway Degree Collge,17.4286299145881,78.52731227874757
fDQ48G2W,Mettuguda Twd Jbs,Mettuguda,17.434189,78.520796
V2FZzv9s,Alugadda Bhavi Twd Jbs,Alugadda Bhavi,17.435314131088564,78.51438403488962
CFbXbiQw,Chilkalguda X Road Twd Secunderabad,Chilkalguda,17.43306214811975,78.50638295273589
u3bvsFOc,Secunderabad Railway Station,Secunderabad,17.434259,78.501577
ok41NPb5,Patny Twd Begumpet,Patny,17.442960075099442,78.49667340517045
gVRyRzSN,Jublee Bus Station,Jbs,17.447612217508436,78.49757970989845
VgDlJTb0,Jbs Twd Secunderabad,Jbs,17.447565922231902,78.49663585662337
RpKg4BxO,Clock Tower Twd Lb Nagar,Clock Tower Secunderabad,17.4432944002706,78.498583257586
QeBJG7EM,St Anns Twd Rathifile Bus Station,Mile Stone,17.442947325300093,78.50370883941652
G7Crwnuu,Chilkalguda Twd Uppal,Chilkalguda,17.433305252319077,78.50677192143513
HxjRAjhe,Alugaddabavi Twd Uppal,Alugadda Bhavi,17.435588,78.514285
UXUFKwWS,Mettuguda Twd Uppal,Mettuguda,17.434563,78.520907
are2VdTm,Tarnaka Twd Yadagirigutta,Tarnaka X Road,17.425805944766314,78.5327196118636
8w1CBdo1,Habsiguda Twd Uppal,Habsiguda,17.421297376185333,78.53977583351977
ajXH07Oj,Ngri Twd Uppal,Ngri,17.4154662609906,78.5457455222495
SbVE8Ev9,Survey Of India  Twd Uppal,Survey Of India,17.406015994449,78.5556103944187
3GrSvtyq,Lb Nagar X Road  Twd Hayathnagar,Lb Nagar,17.34654207243523,78.55145887707285
HTWMhDFf,Mansoorabad Twd Bandlaguda,Mansoorabad,17.352709532120056,78.56267385133256
DCaIPbe6,Chilkalguda Twd Secunderabad,Chilkalguda,17.432993118112314,78.50597798993512
52RJK0Px,Tarnaka-Iict Twd Uppal,Tarnaka X Road,17.424928,78.535651
RZ6oSgtY,Secunderabad Twd Ecil,Secunderabad,17.4369249562,78.5052494893
UlSL8FAc,Clock Tower Twd Patny,Clock Tower Secunderabad,17.4405957478608,78.49705697786254
dtGFrCA2,Jbs Twd Hakimpet,Jbs,17.4492570858197,78.4963840618729
iBWNwmWj,Clock Tower Twd Secunderabad,Clock Tower Secunderabad,17.44151686356847,78.49839798450833
qdFHvg0o,Lal Dhaba Twd Mehdipatnam,Lal Dhaba,17.3417831795729,78.42285733374389
wd4lb9jn,Kuntloor X Road Twd Gowrelly X Road,Kuntloor X Road,17.354189286473133,78.6081835627556
MVLFLC9u,Gourelly X Road Twd Gowrelly,Gowrelly X Road,17.358897289326602,78.61868306714392
yEG6QfeW,Saibaba Mandir Twd Gowrelli,Mile Stone,17.37549074459082,78.63005161285402
qeAb3A4B,Quthubullapur Twd Timmaiguda,Quthubullapur,17.37634313955553,78.63980676861219
yZ39Y49M,Thimmaguda Twd Gowrelly,Thimmaiguda,17.374548810213412,78.6529952297009
iehFiKvC,Gowrelly Twd Tharamathipet,Gowrelly X Road,17.37439523759227,78.67129325866699
ZAOvb4AP,Gowrelly Twd Bandlaguda,Gowrelly X Road,17.374241687677667,78.67143276651935
E0jh4DAL,Thimmaiguda Twd Bandlaguda,Thimmaiguda,17.374405408406936,78.65301236940543
g0AkPCCB,Qutubullapur Twd Bandlaguda Depot,Quthubullapur,17.376284443903785,78.639796031997
fFGA0m6w,Saibaba Mandir Twd Qutbullahpur,Saibaba Mandir,17.375209164736944,78.63011598394151
fDeLEGqd,Gourelly X Road Twd Bandlaguda Depot,Gowrelly X Road,17.35881274424819,78.6186924570536
CfyW9VGN,Kuntloor X Road Twd Bandlaguda Depot,Kuntloor X Road,17.354,78.608
P9Yge8Ha,Gowrelly X Road Twd Tarmathipet,Gowrelly,17.367,78.673
Sy8pzSx4,Taramathipet Twd Hayatnagar,Tharamathipet,17.35636667976005,78.67728262977529
ubcOUm5H,Taramathipet X Road Twd Hayatnagar,Mile Stone,17.35508788375941,78.67206573565238
sm0nu3zr,Pasumamula Twd Hayathnagar,Pasumamula,17.35067413241651,78.64891292444483
755DZcV8,Y Junction Twd Haytnagar,Kuntloor Y Junction,17.345195441703307,78.63185137751407
bAX3mHHp,Kuntloor Twd Hayathnagar,Kuntloor,17.34,78.626
EfxH0lPA,Motherdairy Twd Hayathnagar,Mother Dairy,17.335865611125644,78.61415415752397
qQ2eggZ4,Hayathnagar Twd Lbnagar,Hayath Nagar Bus Stand,17.32707761,78.60373244
BsjNAyiG,Hayathnagar Bus Station,Hayath Nagar Bus Stand,17.327319938482045,78.60489331287081
E6bWGv3K,Motherdairy Twd Kuntloor,Mother Dairy,17.33597317474742,78.61418902567132
p8PmSOxR,Y Junction Twd Taramathipet,Kuntloor Y Junction,17.34526195150847,78.63187283395874
q0X5Nnt4,Pasumamula Twd Taramathipet,Pasumamula,17.3507971093845,78.64895850516442
tG7YXq2Q,Taramathipet Twd Bacharam,Tharamathipet,17.356444887399462,78.67740870381316
SShmjMxs,Bdl Factory Twd Badangpet,Drdo Township,17.32689980834771,78.51278015039361
9sENfyoW,Dhatu Nagar Twd Bdg,Dhatunagar Kanchanbagh,17.325138084784864,78.51431457022397
wwgHNAcs,Midhani Township Twd Bandlaguda,Midhani Township,17.323826720691038,78.51541423192766
qlPqIO3z,Balapur X Road Twd Badangpet,Balapur 'X' Rds,17.3191328399166,78.51961966719655
zilTX2l3,Lenin Nagar Twd Bandlaguda,Lenin Nagar,17.31598202071025,78.52264655200874
FrTvHO6q,Udyog Nagar Twd Bandlaguda,Udyog Nagar,17.313,78.523
kB9s4Jmz,Badangpet Twd Nadergul,Badangpet,17.307128385203526,78.52540925145149
hZBKVjsb,Anjaneya Tower Twd Nadergul,Anjaneya Tower,17.29806175989218,78.53203833103181
z8abhQJs,Gandhi Nagar Hyd Twd Naderguel,Gandhi Nagar,17.293988604360347,78.53485468284194
Y5gq5Ixd,Sri Nilaya Township Twd Nadergul,Sri Nilaya Township,17.2890305628669,78.53620643831913
TkExXTEm,Mvsr Engineering College Twd Nadergul,Mvsr College,17.281915833564565,78.53739729599576
NoyXYOn6,Nadargul Twd Adibatla,Nadargul,17.274,78.539
rPqtY9CN,Ricemill Twd Adibatla,Rice Mill,17.267065915265807,78.539296367256
KtkSAtp5,Chanakyapuri Twd Adibatla,Chanakyapuri Adibatla,17.242831667959454,78.54000718102805
thblSwIe,Adibatla Village,Adibatla,17.232861302734417,78.5424533320133
vPo1HP02,Chanakyapuri Twd Nadargul,Chanakyapuri Adibatla,17.242961262341247,78.53996079481452
vBc58vIY,Ricemill Twd Nadargul,Rice Mill,17.267091528852777,78.53919980830901
bFgvI4h5,Nadargul Twd Koti,Nadargul,17.273646403233354,78.53931784835711
Oz2boA70,Mvsr Engineering College Twd Koti,Mvsr College,17.28208498194676,78.53733293735475
milwCOqR,Sri Nilaya Township Twd Koti,Sri Nilaya Township,17.290003727325292,78.53580956003269
YOeJq9L5,Gandhi Nagar Hyderabad Twd Koti,Gandhi Nagar Badangpet,17.294,78.535
Xj0UYlIJ,Anjaneya Tower Twd Koti,Anjaneya Tower,17.29799901795388,78.53198468685152
csIUD03w,Badangpet Twd Koti,Badangpet,17.307238498227605,78.5251718759537
pSVUx50D,Udyog Nagar Twd Koti,Udyog Nagar,17.31271831205356,78.52294832120312
9xY1MiNf,Lenin Nagar Twd Koti,Lenin Nagar,17.315647682510566,78.52263850483266
yAkFlxiY,Balapur X Road Twd Koti,Balapur 'X' Rds,17.319132873229755,78.51918384515149
W7eLvazM,Midhani Township Twd Koti,Midhani Township,17.323831843006666,78.51524258070283
VmOlNzOp,Dhatu Nagar Twd Bdl,Dhatunagar Kanchanbagh,17.32509642139359,78.5140997171402
0RAWghM1,Bdl Factory Twd Secunderabad,Drdo Township,17.326720587409746,78.51269971457948
5lBRTe5B,Dilsukhnagar Bus Station,Dilsukhnagar Bus Depot,17.36880438199626,78.52383870221536
nGw9kaof,Rk Puram Twd Ecil,Rk Puram,17.4765277743449,78.5260549321451
SmaC7fdk,Patny Twd Jbs,Patny,17.443886444167788,78.49568903446199
i8TLfl8s,V.V Nagar Bus Station,Vivekananda Nagar,17.3631853379698,78.53058725547254
48NXpBnL,Nampally Public Garden Twd Ameerpet,Nampally Public Garden,17.396278,78.470819
iyA3ln0x,Rbi Birlamandir Twd Jbs,Birla Mandir,17.406031907006657,78.46715033054353
nEUX8RWh,Sujatha Hotel Twd Sainagar,Sujata Hotel,17.37435909817079,78.56050290111354
k36xJbzo,Sai Nagar Twd Alkapuri,Sai Nagar,17.36703452112342,78.56199726448092
BcGPQmhM,Ramkrishnapuram,Ramkrishnapuram,17.368004030644627,78.5499350436723
LUl5q810,Assembly Twd Koti,Assembly,17.402243986188587,78.46856114520858
vFMxoZue,Nampally Railway Station Twd Afzalgunj,Nampally Railway Station,17.392076311284324,78.47020536490005
27zhjgdJ,Nizam College Twd Afzal Gunj,Nizam College,17.3974506871114,78.4754535458593
FQ28CymB,Abids Grammar School Twd Koti,Abids Grammar School,17.393331825754654,78.47624970872803
8VIiwiTV,Koti Bank Strret Twd Lb Nagar,Koti Bank Street,17.385427356607348,78.48190784983326
xOUsyoa9,Mehdipatnam Bus Depot,Mehdipatnam Bus Depot,17.392219,78.440777
tLGrhEu9,Geological  Service Of India,Gsi,17.362884007885228,78.56903297133326
IFUW9ATI,Koti Maternity Hospital Twd Ramkoti,Koti Maternity Hospital,17.38535101091611,78.48707116965383
g7J1aoV9,Ramkoti Twd Tourist,Ramkoti,17.390485520705052,78.4861470730132
e5MGu6Vh,Narayanguda Metro Station(Ymca) Twd Secunderabad,Ymca Narayanaguda,17.394294,78.489862
HLIWxCVj,Chikkadapally Twd Secunderabad,Chikkadpally,17.403572284926824,78.49525183552058
kw1N8NkB,Rtc X Roads Twd Secunderabad,Rtc X Roads,17.40802785157458,78.49718570251376
x3XgqbYV,Golconda X Road Twd Secunderabad,Golconda X Road,17.411665,78.497731
a6xZndzb,Raja Deluxe Twd Secunderabad,Raja Deluxe Bus Stop,17.41565751150192,78.49825322223508
LDOgAU0x,Musheerabad Police Station Twd Secunderabad,Musheerabad Police Station,17.420578888133832,78.50048750592288
ZiAbK1p0,Gandhi Hospital Twd Secunderabad,Gandhi Hospital,17.424084771449582,78.50175888237324
eNdxvjwG,Rathifile Bus Station,Secunderabad,17.434570522437138,78.50487893984365
JmW0moXL,Chilkalguda Twd Koti,Chilkalguda,17.43249405749664,78.50602626800539
H3BCTb4F,Gandhi Hospital Twd Musheerabad,Gandhi Hospital,17.4241671470292,78.5019711032509
rUaGsUWW,Musheerbad Metro Twd Koti,Musheerabad,17.418755465590685,78.49985450654015
UQzoJQx1,Raja Deluxe Twd Koti,Raja Deluxe Bus Stop,17.41502029498781,78.49816202868439
RsudzIFL,Rtc X Roads Twd Koti,Rtc X Roads,17.408527292837285,78.49762290716171
gAiZU7VX,Chikkadapally Twd Koti,Chikkadpally,17.4023012715058,78.4952191590437
54FDshBp,Narayanguda Twd Koti,Narayanaguda,17.39882324981411,78.49395230412486
BGalzd0E,Ramkoti Twd King Koti,Ramkoti,17.3905172011217,78.4851975739002
6D8DLdWh,Maruti Nagar Twd Satyanagar,Maruthi Nagar,17.37377310074694,78.54133217227744
bzEedbkc,New Maruthi Nagar Twd Satya Nagar,New Maruthi Nagar,17.37702150749329,78.54367911815645
5acrFhXn,Satya Nagar,Satya Nagar,17.381014865906394,78.54505777170509
qKBkRTkh,New Maruthi Nagar Twd Kothapet,New Maruthi Nagar,17.37708036843807,78.54368984924854
eTWU0Ild,Maruti Nagar Twd Dilshuknagar,Maruthi Nagar,17.37345312236907,78.54139385550674
lWuOBVJV,Babukhan Estate Twd Dilsukhnagar,Babukhanestate,17.371498445632536,78.54092725583494
IBt2GB6e,Lb Stadium Twd Tank Bund,Lb Stadium,17.39869208,78.47431552
hWGPbcMs,Basheer Bagh Twd Tankbund,Basheer Bagh,17.401842141557793,78.4757736325264
owb0V3v4,Liberty Twd Secunderabad,Liberty,17.40733719,78.47665574
W4vA60DC,Sarojini Devi Hospital Twd Koti,Sarojini Devi Hsptl,17.398719,78.444326
VKioR5jw,Nmdc Twd Uppal,Nmdc,17.398961480216787,78.44955235719682
wPpbiQd0,Masab Tank Twd Lakdikapul,Masab Tank,17.404163578171367,78.45224529504777
65IwqrLo,Mahavir Hospital Twd Koti,Mahaveer Hospital,17.402868470276513,78.45855106941224
Gm0WIrE8,Lakdikapool Twd Dilsukhnagar,Lakdikapool,17.406426025741833,78.46275493341807
ixMmijMC,Babukhan Estate Twd Sathya Nagar,Babukhanestate,17.371502508637306,78.54087888179282
BJCimp4m,Mehdipatnam,Mehdipatnam,17.3944638148,78.4394866005
3VHltFPj,Nmdc Twd Lakdikapul,Nmdc,17.398976,78.449559
8ZtgECne,Nampally Public Garden Twd Ameerpet,Nampally Public Garden,17.396278,78.470819
74a7Y5zO,Abids Gpo Twd Afzalgunj,Abids Gpo,17.387308905246528,78.47624838951177
CcmOHg1S,Koti Medical College Twd Cbs,Koti Medical College,17.382729949203686,78.48243354568609
AtwNBAXP,Malakpet Chermas Twd Koti,Chermas Malakpet,17.37300258761809,78.50529670715333
r7PDeEod,Thatti Annaram,Tatianaram 1,17.365,78.588
u5oKUogT,Jayaprakash Nagar Colony,Jayaprakash Nagar Colony,17.3502,78.6332
fNl6keYy,Pallavi Eng School,Pallavi Eng College,17.3498160017369,78.60905437116466
DXeL91de,Kuntloor Rajiv Gruhakalpa,Kuntlur Rajiv Gruhakalpa,17.356,78.636
YPoQZzru,Plaza Twd Begumpet,Plaza,17.443204621664965,78.49011942051914
GVLWcO80,Paradise Metro Station Twd Begumpet,Paradise,17.44314095057875,78.48621763401826
C5RkuVFZ,Wesley College Twd Begumpet,Wesley College,17.443347223031,78.48193144196273
jwo9ywmN,Police Lines Twd Ameerpet,Police Lines,17.44365106196432,78.47499310970305
b6Ed1APh,Prakash Nagar Twd Begumpet,Prakash Nagar Begumpet,17.443991837055457,78.47139358520509
xjTl0c9a,Shopper Stop Twd Ameerpet,Shoppers Stop Begumpet,17.4448396158677,78.4649043157696
0QXQxf3w,Shyamlal  Bangla Twd Ameerpet,Shyamlal Begumpet,17.44420961951012,78.46172824501993
vICEAYpg,Begumpet Hps Twd Ameerpet,Hps Begumpet,17.442554874152,78.4592780470848
KgDSpIOK,Rj College Twd Panjagutta,Rj College,17.434999401680997,78.4555792589056
AWE6D07a,Punjagutta Twd Mehdipatnam,Punjagutta,17.426452245960245,78.45141112804414
65xHYVX2,Sulthan College Twd Jublee Hills Check Post,Nagarjuna Circle,17.4271046887206,78.44481289200051
fgg0IQHr,Tv9 Headoffice Twd Rgia,Tv9 Office,17.426853894104795,78.43971669673921
86IbbkEG,Sagar Society Twd Jubilee Check Post,Sagar Society,17.42502315828206,78.4335259372616
2mWGJyjR,Lv Prasad Twd Kbr Park,Lv Prasad Eye Hospital,17.4235,78.4274
YjH8S4NX,Annapurna Studio Twd Jublee Hills Check Post,Annapurna Studio,17.423478147617466,78.42495649729067
1TBXgVCU,Jublie Hills Check Post Twd Filmnagar,Jubilee Hills Checkpost,17.42612647307398,78.41517046093941
zZiA1d01,Journalist Colony Twd Film Nagar,Journalist Colony,17.420993470731677,78.41128798306407
AeIYaQxo,Apollo Hospital Twd Shaikpet,Apollo Hospital-Jublie Hills,17.417681,78.411312
dn54Anhq,Film Nagar Twd Darga,Film Nagar,17.41408302020268,78.40816313205652
MirIXd2Q,Film Nagar Twd Secunderabad,Film Nagar,17.4151264577283,78.4090106640556
uZ2nC6YW,Apollo Hospital Twd Secunderabad,Apollo Hospital-Jublie Hills,17.418058,78.411197
sHz79x1Y,Journalist Colony Twd Jublee Check Post,Journalist Colony,17.42135706183527,78.41065225606238
q4cCb1IV,Jublie Hills Check Post Twd Lv Prasad,Jubilee Hills Checkpost,17.4261354453542,78.4182814084813
tquaarUN,Annapurna Studio Twd Koti,Annapurna Studio,17.42368170511685,78.42489614303223
dXemqBWm,Lv Prasad Eye Hospital Twd Punjagutta,Lv Prasad Eye Hospital,17.424,78.428
Np9JrhsY,Sagar Society Twd Secunderabad,Sagar Society,17.425067598523608,78.43328744173051
1mxfl1ME,Tv9 Twd Punjagutta,Tv9 Office,17.426567334517344,78.43837020634331
y6Kh51iI,Sulthan College Twd Koti,Nagarjuna Circle,17.427253131546497,78.44500623135492
knSGAN1e,Panjaguta Twd Secunderabad,Punjagutta,17.426621038973163,78.45111072063447
V9ddvO25,Greenland Twd Begumpet,Green Land,17.430726989897867,78.45590785145761
qRKZzfuC,Rj College Twd Secunderbad,Rj College,17.435037698134607,78.45528691882602
vmdvxAEq,Begumpet Hps Twd Secunderabad,Hps Begumpet,17.4427992466057,78.4588914737105
sNtT8ZDC,Shyamlal Twd Secunderabad,Shyamlal Begumpet,17.444383,78.461112
GjAAZkb2,Shoppers Stop Twd Secunderabad,Shoppers Stop Begumpet,17.44512231917755,78.465001887711
Q6FWRb1R,Prakash Nagar Twd Secunderabad,Prakash Nagar Begumpet,17.444306095337662,78.47153045015418
joW0g0Qq,Police Line Twd Secunderabad,Police Lines,17.443691,78.478073
Cmq2kMFs,Wesley College Twd Sec-Bad,Wesley College,17.44347191151179,78.48205268785652
PwJCFyTq,Paradise Metro Stn Twd Secunderabad,Paradise,17.443494936781793,78.48664998976962
KIkHjkpt,Plaza Twd Secunderabad,Plaza,17.44330305239693,78.49065722513043
X0STVNy1,Patny Twd Secunderabad,Patny,17.44318275884649,78.49624693393709
J0o2W16q,Peerzadiguda Twd Uppal,Peerzadiguda,17.395,78.593
9mRire0L,Boduppal Kamman Twd Indiranagar,Boduppal Kaman,17.4047458102347,78.5865203663706
hwwH4jUc,Uppal Depot Twd Medipally,Uppal Depot,17.405457039268985,78.58914995844997
O2GU1Aph,Uppal Bus Depot,Uppal Depot,17.404634142147934,78.58966288150283
bGRebiXX,Boduppal Twd Jbs,Boduppal Kaman,17.404614000800635,78.58667493326617
G3Zpsr6s,Peerzadiguda Khaman Twd Jbs,Peerzadiguda Kaman,17.401238751115223,78.5816015303135
UsLG96x8,Uppal Bus Stand Twd Uppal X Road,Uppal Bus Stand,17.401465902576017,78.57100009918214
qKfbvH4T,Modern Bakery Twd Koti,Modern Bakery,17.401220278573184,78.55002522653528
LOa6jsKp,Ramanthapur Church Twd Koti,Ramanthapur Church,17.401,78.544
qCYClJlG,Ramanthapur Public School,Ramanthapur Public School,17.399464400555345,78.53779435157777
wzVG2qnT,Ramanthapur Colony  Twd Koti,Ramanthapur,17.397217163736546,78.53158235549928
nyqH0iWW,Polytechnic College Twd Koti,Polytechnic College-Ramanthapur,17.395347751448888,78.5269099485933
J37ZgGmj,Irani Hotel Twd Koti,Irani Hotel,17.39327557924207,78.52189420913909
LW55dkBm,Amberpet Gandhi Statue Twd Kacheguda,Amberpet Gandhi Statue,17.39239242192356,78.5194104909897
8KEiSXjE,Amberpet Twd Kacheguda,Amberpet,17.39213391661559,78.51677924394609
OsSkD3vJ,6 Number Twd Secunderabad,6 Number,17.391741005604583,78.51079389311933
NtsTwkjS,Tilaknagar Twd Mehdipatnam,Tilak Nagar,17.394112453286166,78.50860926763069
5XYVRO5k,Fever Hospital Twd Koti,Fever Hospital,17.395425473104176,78.5024750000878
u7Fc9ErH,Barkatpura Twd Narayanguda,Barkatpura,17.395,78.498
BZjon0sG,Narayanguda Twd Mehdipatnam,Narayanaguda,17.400257837481607,78.49007114768028
7n1855W7,Himayathnagar Twd Mehdipatnam,Himayath Nagar,17.402475603400166,78.4832797959498
wuszFLRB,Inbar Twd Lakdikapul,In Bar,17.405225698148367,78.48002493381503
Dg7VAzf3,Telephone Bhavan,Telephone Bhavan,17.407122137213587,78.46616058810464
QwXoY0uV,Liberty Twd Uppal,Liberty,17.40641195497385,78.47793145699887
pQXuSRxs,Inbar Twd Fever Hospital,In Bar,17.405346310120475,78.48002762022473
R2f0UX4v,Himayat Nagar Twd Uppal,Himayath Nagar,17.403382949943925,78.48251936509604
Yq3JPEYJ,Narayana Guda Twd Uppal,Narayanaguda,17.400174654739622,78.49059686064722
sp6IsDqi,Barkatpura Twd Uppal,Barkatpura,17.395687848711685,78.49734529782856
2vJVGGV6,Fever Hospital Twd Shankar Matt,Fever Hospital,17.395489492629167,78.502201437639
nzupSGfm,Tilaknagar Twd Uppal,Tilak Nagar,17.394192756117523,78.50854083924561
JYcbaciy,6 Number Twd Uppal,6 Number,17.391366667968345,78.51098768413068
1PfDELSJ,Amberpet Gandhi Statue Twd Uppal,Amberpet Gandhi Statue,17.392702136489785,78.51982356697016
LNPGO1LK,Irani Hotel Twd Uppal,Irani Hotel,17.393521009999947,78.52220000205224
B2PQUqws,Ramanthapur Tv Studio Twd Uppal,Ramanthapur Tv Studio,17.396713,78.52988
rOjObtmd,Ramanthapur Colony Twd Uppal,Ramanthapur,17.397903,78.532729
ETS5vL8h,Ramanthapur  Public School Twd Uppal,Ramanthapur Public School,17.399195655009358,78.53623867034912
aJjYwWrD,Ramanthapur Church Twd Uppal,Ramanthapur Church,17.401107,78.54349
GBqGFBMX,Modern Bakery Twd Uppal,Modern Bakery,17.40132001378291,78.55001181364061
hCkrCbOE,Uppal Depot Twd Secunderabad,Uppal Depot,17.405392053733866,78.58949526988873
BBZGZKnc,Milestone Gandhian Clg,Milestone Gandhian Clg,17.332,78.6308
giMY0XoZ,Pedda Amberpet Twd Mgbs,Pedda Amberpet,17.3205492,78.64124112
8Z7GErO0,Paradise Water Tank Twd Patancheruvu,Paradise,17.4450481614948,78.4870630502701
GIe8C9hg,Cto Twd Medchal,Cto,17.450395400585613,78.48666074225532
87ngmWcl,Tadbund Twd Patancheruvu,Tadbund,17.45646278230759,78.48426282588864
BzrsSycc,Ashish Garden Twd Patancheruvu,Ashish Garden Bus Stop,17.45755916942138,78.47801730816455
6WVFTmsv,Bowenpally Police Station Twd Medchal,Bowenpally,17.465190195884468,78.47266227053588
NdEU2LSO,Bowenpally Check Post Twd Medchal,Bowenpally Checkpost,17.47587701695448,78.47371099988511
KDc0jQfn,Nandamuri Nagar Twd Nirmal,Nandamuri Nagar,17.48013160563152,78.47297072410585
XNEqxypB,Dairy Farm Twd Medchal,Dairy Farm-Bowinpally,17.4873310037032,78.4733722080991
M2FzfisB,Suchitra Circle Twd Nirmal,Suchitra X Road,17.500383637841455,78.47722068428995
KnDqL1iX,Champapet Twd Lb Nagar,Champapet,17.3485620728481,78.51571306586267
vQVCpqNd,Poolbagh Chaman Twd Laldarwaza,Pool Bagh,17.342230718451862,78.47412407906742
IiG9DB77,Barkas Twd Maheshwaram,Barkas,17.317458207241422,78.47965613007547
Rc9wdOaA,Sadath Nagar Twd Maheswaram,Sadat Nagar,17.2924175473547,78.4737711288894
qgFCxsYj,Jalpally X Road Twd Maheswaram,Jalpally X Rd,17.2831183498853,78.471830824927
0481ggli,Pahadi Shareef Twd Mamidipalli,Pahadi Shareef,17.272412218245556,78.47312726001837
7qLVXCAF,Sheep Farm Twd Maheswaram,Sheep Farm,17.2572013756364,78.47552394850499
7tGwP9TN,Sardarnagar Milstone Twd Tukkuguda,Mile Stone,17.21711330104237,78.48448008438899
EQHXghba,Tukkuguda Twd Kalwakurthy,Tukkuguda,17.208974,78.476849
SsBJkUmh,Imamguda Twd Amangal,Imamguda-Mhrm,17.19279045195892,78.4751781821251
G2jz20fO,Maheshwaram Gate Twd Amangal,Maheshwaram Gate,17.178935274801233,78.47382903099061
O77FG903,Lemurgate Twd Amangal,Lemur X Roads,17.164312984582573,78.47683310780525
qUrxHWWg,Tummalur Gate Twd Kalwakurthy,Thummaloor-Gate,17.1324304173473,78.4778674319386
ZkCeyQwu,Rachloor Gate Twd Kalwakurthy,Rachloor,17.1244225194625,78.47711138427252
3fKRWT8s,Gudur Gate Twd Amangal,Gudur Gate,17.092193012952148,78.47457468058472
pgNHfS46,Kandukur X Road Twd Kalwakurthy,Kandukur X Roads,17.0728516554555,78.4740102359588
Hhp4c9AV,Kandukur Village,Kandukur (Klky),17.064641146043222,78.4888169668035
wPDbsGDF,Milestone Twd Kadthal,Mile Stone,17.022056570869246,78.4940904360221
Kevw8ybZ,Future City,Future City,17.0523,78.5246
kaXlqmVi,Saraswati Colony-Uppal Twd Lb Nagar,Mile Stone,17.39503644739134,78.55925738781393
0DCxkOxV,Uppal X Rd (Pickup Bus),Uppal X Rd Pushpak Point [Pb],17.4004952872,78.5604127766
Zlg504xr,Barkatpura Bus Depot,Barkatpura Bus Depot,17.3923137148681,78.50115202367301
zI0YQHC7,Barkatpura Twd Koti,Barkatpura,17.394002342815828,78.49834182298436
JrvyFDPx,Tourist Hotel Twd Koti,Tourist Hotel,17.39102496200486,78.49644776539458
cMahUBUy,Kachiguda Station,Kachiguda Railway Station,17.390083600178784,78.49908740002142
eHfFJzFj,Chadarghat Mch Quarters Twd Afzalgunj,Chadarghat,17.38147040182143,78.49291026633878
OkZJgFnt,Cbs,Cbs,17.378225485539648,78.48167891152019
P7gQUU8q,Cbs Twd Afzalgunj,Cbs,17.3778530498046,78.48192815987304
RprCTGDf,Osmangunj Twd Nampally,Osmangunj,17.3801592673954,78.4749823530744
TB1fWaY6,Gandhi Bhavan Twd Nampally,Gandhibavan,17.388345659286514,78.47138822677678
y2CUeob7,Nanal Nagar Twd Shaikpet,Nanal Nagar,17.39607052566403,78.42676146544902
PdmKiXUy,Tolichowki Twd Shaikepet,Toli Chowki,17.398742553082403,78.41560900211336
io15C5gx,Brindavan Colony Twd Gachibowli,Brindhavan Colony,17.4028012915132,78.4101634472608
i4AV9TdE,Shaikpetnala Twd Lingampally,Shaikpet Nala,17.407302,78.401751
lDcRx4B5,Narayanamma College Twd Gachibowli,Narayanamma College,17.4099222476304,78.39821487927924
R1CATqti,Darga Twd Lingampally,Darga,17.413264,78.394529
NEVC6NLz,Khajaguda X Road Twd Lingampally,Khajaguda X Rd,17.42308310993408,78.38123650432271
yf59S2JP,Biodiversity Twd Lingampally,Bio Diversity,17.429031,78.374323
c2zOpk6c,Telecom Nagar Twd Lingampally,Telecom Nagar Hyd,17.435076,78.367627
n7vlkWjQ,Gachibowli X Road Twd Lingampally,Gachibowli,17.43903478696671,78.36295187473299
ehK6CGyE,Indira Nagar Twd Lingampally,Indira Nagar- Gachibowli,17.44092328863317,78.36015969475827
nghxlyD8,Iiit Twd Lingampally,Iiit,17.4455058735302,78.3520651236176
bdSrRqNp,Gachibwoli Stadium Twd Lingampally,Gachibowli Stadium,17.450753,78.346141
zRXwmnh5,Hcu Small Gate Twd Lingampally,Hcu Small Gate,17.45687,78.339608
AjpbhKZY,Masjid Banda Twd Lingampally,Masjid Banda,17.46019083942107,78.33719198785839
RF3jCHQo,Hcu Main Gate Twd Lingampally,Hcu Main Gate,17.461536456523714,78.33590981373595
MJtIyjPz,Hcu Depot Gate Twd Lingampally,Hcu Main Gate,17.468116,78.331202
GwprEEDE,Alind Doyene Colony Twd Lingampally,Alind,17.476682920198478,78.32460165023805
pFTI3DtD,Gulmohar Park Twd Lingampally,Gulmohar Park Colony Bus Stop,17.4779867382047,78.3199409767985
pNXDxvVH,Lingampallyrly Station Twd Lingampally,Lingampally Railway Station,17.479735485076358,78.31521395970803
KdJtfeXu,Bhel-Lingampally,Lingampally,17.49408424089343,78.31582009938737
fj8FVMOk,Jyothi Ngr  Bhel Twd Patancheruvu,Jyothi Nagar-Bhel,17.501464,78.312041
dRMDe5T6,Ashok Nagar Bhel Twd Patancheruvu,Ashok Nagar - Bhel,17.504123,78.308781
Nw9MwrDH,Beeramguda Kaman Twd Patancheru,Beeramguda Kaman,17.50889,78.300277
1o698GP3,Rc Puram Twd Patancheruvu,Rc Puram,17.513617,78.287795
II7bciLP,Icrisat,Icrisat,17.518553830327,78.2787145288346
6PCwr68X,Alwyn Twd Miyapur,Allwyn,17.524898484106128,78.27172928470921
enXMW3fY,Patancheruvu,Patancheruvu,17.529025313995227,78.26428414745395
FMXqLNtM,J P Colony Bus Stop Patancheru  Twd Jbs,J.P Colony,17.5286758468744,78.2672027125954
WV9IcDKE,Icrisat,Icrisat,17.5183441688588,78.27943873203023
HBEsChQJ,Rc Puram Bus Stop Twd Koti,Rc Puram,17.513806475456402,78.28835430176822
uszXY4af,Beeramguda Kaman Twd Koti,Beeramguda Kaman,17.508994,78.300791
88qmN6Io,Ashok Nagar Twd Koti,Ashok Nagar - Bhel,17.504589,78.308468
7GAFuon5,Jyothi Nagar Bus Stop Twd Lingampally,Jyothi Nagar-Bhel,17.50207,78.312112
NvZJ6Bq3,Lingampally,Lingampally,17.49484918687174,78.316890299404
WnogEKf8,Lingampally Railway Station Twd Mehdipatnam,Lingampally Railway Station,17.48004206867046,78.31533197733737
wb5eSLiO,Gulmohar Park Twd Gachibowli,Gulmohar Park Colony Bus Stop,17.4780705250615,78.3201636001467
4WOwv4iE,Alind Doyene Colony Twd Mehdipatnam,Alind,17.47667524500963,78.32473307847978
lohzZAZ2,Hcu Depot Gate Twd Mehdipatnam,Hcu Main Gate,17.468233,78.331306
Mzyf0mUV,Hcu Main Gate Twd Mehdipatnam,Hcu Main Gate,17.46220192485904,78.33550219058736
fEiTwduh,Hcu Small Gate Twd Mehdipatnam,Hcu Small Gate,17.456496,78.340242
X2pdhYhb,Masjid Banda Twd Mehdipatnam,Masjid Banda,17.459430842653187,78.338016717216
XvrhNaV0,Gachibwoli Stadium Twd Mehdipatnam,Gachibowli Stadium,17.45075,78.3468
n8YbCvTO,Iiit Twd Mehdipatnam,Iiit,17.444441506975238,78.35368482251634
CTLSoPoL,Indira Nagar Twd Mehdipatnam,Indira Nagar- Gachibowli,17.440605937791037,78.36094290145553
WcY4kntl,Gachibowli X Road Twd Mehdipatnam,Gachibowli,17.4383272428414,78.36456522345541
b8EKh3kU,Telecom Nagar Twd Mehdipatnam,Telecom Nagar Hyd,17.435595573474846,78.36775302621616
RIQHN9r7,Bio Diversity Complex Twd Rgia,Bio Diversity,17.429157224648808,78.37504324809494
5TZMCxdr,Khajaguda X Road Twd Mehdipatnam,Khajaguda X Rd,17.422308899990874,78.38296933550146
PUvsyqi8,Darga Twd Mehdipatnam,Darga,17.412174448493204,78.39587332747406
c5vdOWvP,Narayanamma College Twd Mehidipatnam,Narayanamma College,17.410228,78.398301
FWbv1Cmq,Shaikpetnala Twd Mehdipatnam,Shaikpet Nala,17.407242497448888,78.40242594480515
Z9AN7eoD,Brindavan Colony Twd Mehdipatnam,Brindhavan Colony,17.4035080135269,78.4092719480395
5UVBX5dh,Tolichowki Twd Mp,Toli Chowki,17.39924429257621,78.41551781525934
22iIia8u,Nanal Nagar Twd Mehidipatnam,Nanal Nagar,17.3962,78.427
8ZLe57qP,Public Garden Twd Gandhi Bavan,Nampally Public Garden,17.3962160722698,78.4712742269039
UzylZZpu,Gandhi Bhavan Twd Afzalgunj,Gandhibavan,17.387777485332467,78.47198362566654
vgeabyCD,Osmangunj Twd Afzalgunj,Osmangunj,17.3805594457203,78.4752623230739
7uS0TD0D,Afzalganj Central Library Twd Cbs,Afzalgunj,17.3738,78.478
AMDPVwrq,Chadarghat Twd Kachiguda,Chadarghat,17.382243375492738,78.49324956602909
AZ9WhQ64,Kachiguda Railway Station,Kachiguda Railway Station,17.389500078206755,78.49726416212899
IR5YiCGc,Nimboliadda Twd Kachiguda Railway Station,Nimboliadda,17.38422366,78.49360194
WmzuokM6,Kachiguda X Road Twd Koti,Kachiguda X Roads,17.39069285391186,78.48937511444093
nQotD9EE,Goshamahal Twd Mehdipatnam,Goshamahal,17.383832989854696,78.47415088735977
bBZgUon7,Darusalam Twd Mp,Darusalam,17.38281423222229,78.46528887826761
lGyB3RaU,Bhoiguda Kaman Twd Mehdipatnam,Bhoiguda Kaman,17.382812097817883,78.46042809684229
X5rrIKse,Seetharambagh Twd Mehdipatnam,Seethrambagh,17.385167014325116,78.4581478348899
EcYAl4Um,Mallepally Twd Mehdipatnam,Mallepally,17.3891905207692,78.4545799909196
8i0N6xJd,Asifnagar Twd Mehdipatnam,Asifnagar,17.3898731287234,78.4516039669194
cra7QW2M,Khajaguda X Road Twd Nanakramguda,Khajaguda X Rd,17.42247012967654,78.38180646090282
YWIdVc49,Lanco Hills Twd Goulidoddi,Lanco Hills,17.418,78.3703
pGxe0Sf7,Khajaguda Twd Gowlidoddi,Khajaguda,17.41787574985231,78.3673084600916
3wPoHTH2,Nanakramguda Twd Wipro,Nanakramguda,17.41948116255868,78.35451599210502
CvwKMs0N,Wipro Circle Twd Gar Kokapet,Wipro Circle,17.42762385,78.3417864
W9CokUTo,Q City Twd Gowlidoddy,Q City,17.42660948321484,78.33153114051883
Sm2dyUa2,Gowlidoddy Twd Gopanpally,Gowli Doddi,17.42986209168885,78.32432001808337
cUgbtPZ3,Gopanpalle Milestone Twd Lingampalli,Gopanpalle Milestone Twd Lingampalli,17.43939323081746,78.31485994267267
kwLW4s15,Gopanpally X Roads Twd Kollur,Gopanpally X Roads,17.446239895177634,78.30675892398357
hHMjjlFQ,Gopanpally Twd Lingampally,Gopanpally Twd Lingampally,17.453253364975374,78.30616927882751
bAPeQYQ7,Aparna Apartments Twd Lingapally,Aparna Apartments Twd Lingapally,17.462066321447335,78.3081382343845
p3yCm2Vh,Citizen Hospital Twd Lingampally,Citizen Hospital Twd Lingampally,17.470176540412126,78.3098610408932
FGOQybzG,Nallagandla Twd Lingampally,Nallagandla,17.477527071965074,78.30663083737076
tDEWS7qE,Nallagandla Twd Mehdipatnam,Nallagandla Twd Mehdipatnam,17.477495255920495,78.3072196638077
ABGhGnqx,Citizen Hospital Twd Mehdipatnam,Citizen Hospital Twd Mehdipatnam,17.47034733567895,78.3099795407444
IEXcXmyz,Aparna Apartments Twd Mehdipatnam,Aparna Apartments Twd Mehdipatnam,17.461928085995403,78.30827238995568
nqEYN6Uu,Gopanpally Twd Mehdipatnam,Gopanpally Twd Mehdipatnam,17.453365454713428,78.30631974517682
xE2Rbo6s,Gopanpalle Milestone Twd Koti,Gopanpalle Milestone Twd Koti,17.439469784350262,78.31503156456924
1dFyOc5w,Gopanpally X Roads Twd Mehdipatnam,Gopanpally X Roads,17.44589370661091,78.30749853578376
spVMAJCg,Gowlidoddy Twd Mehidipatnam,Gowli Doddi,17.429737297759306,78.32467541091441
MyeZootB,Q City Twd Mp,Q City,17.42671310250381,78.331561984999
xiDNKOoD,Wipro Circle Twd Gachibowli,Wipro Circle,17.42619365,78.34065199
dkc5ID9D,Nanakramguda Twd Gachibowli,Nanakramguda,17.4194963486706,78.35486364598817
7WZ1aaAI,Khajaguda Twd Mehidipatnam,Khajaguda,17.418009517347905,78.36729839370958
3LZ21Nh6,Lanco Hills Twd Mehidipatnam,Lanco Hills,17.41824758448267,78.37047280052346
rBENVtQo,Nanal Nagar Twd Mehidipatnam,Nanal Nagar,17.395487705634253,78.4273249243984
CuYaOmG2,Asifnagar Twd Masabtank,Asifnagar,17.3900219833668,78.4518481161863
BzhlypU0,Seetharambagh Twd Nampally,Seethrambagh,17.385215223458886,78.45825075511996
90Ixzm5e,Mallepally Twd Masabtank,Mallepally,17.389280610266,78.4548888972957
SyAFFhpz,Bhoiguda Kaman Twd Nampally,Bhoiguda Kaman,17.382903819175258,78.46051454046203
Gs4zNvFT,Darusallam Twd Nampally,Darusalam,17.383272548040537,78.46593259864981
qSVOAjAq,Mehdipatnam Twd Koti,Mehdipatnam,17.395232536631514,78.4391878739413
oXG70ClK,Govt Jr College Twd Oldmig,Govt Junior College-Bhel,17.492708008321095,78.31038057819453
VA0p9S8A,Water Tank Twd Oldmig,Water Tank Twd Oldmig,17.484005644,78.298088696
DPSbFdXy,Old Mig,Mig-Bhel,17.483241215278767,78.2965765845519
V6gxUufu,Annamayya Enclave,Annamayya Enclave,17.4841,78.2825
DxR2G5xI,Tourist Hotel Twd Kachiguda,Tourist Hotel,17.389764347467224,78.4958311413433
l84FtHeC,Iiit Milestone Twd Wipro,Mile Stone,17.441849581861238,78.34995387802249
rmajg1kR,Wipro Twd Secretariat Colony,Wipro,17.43828757900777,78.34828017461857
mJ3iRsIA,Tngo Colony Twd Secretariat Colony,Tngos Colony,17.442830911725263,78.33324507026656
WsADLBt1,Secratariate Colony Twd Mehdipatnam,Secratariate Colony,17.394047171586063,78.38610738515855
XDVkUM5o,Tngo Colony Twd Wipro,Tngos Colony,17.442942421935946,78.33326992514155
KJ7kkzLn,Wipro Twd Iiit,Wipro,17.438323841255436,78.34798962080094
feXTXarP,Wipro Milestone Twd Gachibouli,Mile Stone,17.44195280164025,78.34974854040628
SQRaHPms,Patancheruvu Twd Koti,Patancheruvu,17.529541978009505,78.26410711375621
8NDo3n3K,Icrisat Twd Lingampally,Icrisat,17.5183441688588,78.27943873203023
lFQnF9fq,Ashok Nagar Twd Koti,Ashoknagar Rtc X Rd,17.408921432713964,78.48959773778917
78WnlJ1a,Lingampally Twd Koti,Lingampally,17.49520733476956,78.31726010294108
oRed9y3b,Shaikpet Nala Twd Gachibowli,Shaikpet Nala,17.4060095123641,78.4034026041627
f2CckLsh,Vasudeva Bloom Field Twd Kollur,Mile Stone,17.456447439872434,78.29664766788486
Tx3Uycgr,Tellapur X Roads Twd Kollur,Tellapur,17.462677720490323,78.28747987747194
3Wth2CAI,Osman Nagar Twd Kollur,Osman Nagar,17.4418547366987,78.2720839975511
bwFZ9X6G,Cyber Colony,Cyber Colony,17.448196348319883,78.26926231604817
Dd51Cr9K,Kollur Double Bedroom Twd Kollur,Kollur Double Bed Room,17.434328863253885,78.25696036219598
fJcafzTD,Kollur Doublebedroom Township,Kollur Doublebedroom Township,17.432,78.2551
0wVT2KfQ,Kollur Double Bedroom Twd Osman Nagar,Kollur Double Bed Room,17.43446248481722,78.25706456346103
tkoNn5fz,Osman Nagar Twd Lingampally,Osman Nagar,17.44213595951203,78.27197669066459
8PZW6YGq,Tellapur X Roads Twd Mehdipatnam,Tellapur,17.46296428268626,78.28737258911134
o6pyezoG,Vasudeva Bloom Field Twd Mehdipatnam,Mile Stone,17.45622227584441,78.29703390598297
lmNrF1fn,Barkatpura Pf Office,Barkatpura Pf Office,17.39343799526668,78.49768057399798
BwA3VoUm,Journalist Colony Twd Gopanpally,Almas Hotel,17.4328983967,78.3211963067
PhiNQicX,Bhel Church Twd Lig,Bhel Church,17.499364256623178,78.30840111624818
mzQ3gmRa,Bhel Keerthi Mahal,Bhel Keerthimahal,17.49654522406992,78.29747915267946
0Le4m9Mm,Lig Colony,Lig Colony-Bhel,17.50381268867164,78.29158365726472
qWSDfInu,Amberpet Twd Uppal,Amberpet,17.392241,78.516642
DARZcGbD,Peerzadiguda Khaman Twd Uppal Depot,Peerzadiguda Kaman,17.40136096503484,78.58157336711885
Fuvttp0V,Boduppal Twd Yadagirigutta,Boduppal Kaman,17.404896,78.587278
Q7014tR9,Medipally Twd Ghatkesar,Medipally,17.41,78.603
FdzfzCbn,Medipally Twd Jbs,Medipally,17.410034745305833,78.60356211662294
jQUipGEE,Nanal Nagar X Road Twd Langarhouse,Nanal Nagar,17.395128593905696,78.42734232111722
JDSxM2WM,Langar House Twd Kali Mandir,Langar House,17.37843771,78.4209751
7guxqq8S,Bapu Ghat Twd Sedam,Bapu Ghat,17.374015,78.417593
832f0Tns,Tipu Khan Bridge Twd Kalii Mandir,Tippu Khan Bridge,17.371026393832324,78.4046226919575
1dz6Of8P,Suncity Twd Chevella,Suncity,17.36476225,78.39571808
iXcFXrHu,Bandlaguda X Road Twd Moinabad,Bandlaguda X Road,17.359568003934776,78.3879889547825
VHOGEY4R,Peeramcheruvu Twd Moinabad,Peeram Cheru,17.3544984086384,78.3790216386236
gg1O2ENL,Kalimandir Twd Moinabad,Kalimandir,17.3523319158945,78.3770152830632
54suq5uU,Appa Twd Moinabad,Appa Junction,17.350935382372132,78.35801659936408
qccftrvg,Golden Farm Twd Moinabad,Golden Farms,17.35369008294187,78.34210305687256
FLnjOddn,Osman Sagar X Road Twd Moinabad,Osman Sagar X Rd,17.3531014085184,78.3308846424825
BAsXhVXt,Aziz Nagar X Road Twd Chevella,Aziz Nagar X Roads,17.344140510147906,78.32481622875423
T8BKEMqk,Himayat Nagar X Road Twd Moinabad,Himayathnagar X Road,17.3386325066237,78.3119065256401
cVsyEttO,Jbiet College Twd Chevella,Jbiet College Amdapur X Road Bus Stop,17.33140703,78.29720456
dHLhPczE,Decent Poultries Twd Chevella,Decent Poultry,17.331072578539708,78.29313397407533
zGYSG7bl,Satsang Twd Chevella,Sathsang,17.330027911856615,78.2801198974909
4HJn54j9,Moinabad Twd Sedam,Moinabad Bus Stop,17.328394,78.272705
4BcvWaFF,Moinabad Twd Hyderabad,Moinabad Bus Stop,17.328963,78.27318
uboghRWM,Satsang Twd Mehdipatnam,Sathsang,17.330242990136437,78.28014671740286
kqVSR8tV,Decent Poultries Twd Mehdipatnam,Decent Poultry,17.33127226395826,78.2931554305028
EhiQ5Y3H,Jbiet College Twd Mehdipatnam,Jbiet College Amdapur X Road Bus Stop,17.331621766667745,78.29738259075903
vZHy3ifq,Himayath Nagar  X Road  Twd Mehdipatnam,Himayathnagar X Road,17.33877668838069,78.31199256372187
F5kjgZBH,Aziz Nagar X Road Twd Mehdipatnam,Aziz Nagar X Roads,17.344189191177293,78.32465795293915
2QgJHKxC,Osman Sagar X Road Twd Mehdipatnam,Osman Sagar X Rd,17.3531973109365,78.3305561031737
b8ltroJx,Golden Farm Twd Mehdipatnam,Golden Farms,17.353754068566243,78.34207087216132
kLUdNhDw,Appa Twd Mehdipatnam,Appa Junction,17.350843348535044,78.35830717399931
BOZ6ud3G,Kalimandir Twd Mehdipatnam,Kalimandir,17.352451191287,78.3768691480659
Ed7fO2rc,Peeramcheru Twd Mehdipatnam,Peeram Cheru,17.35461106,78.37880742
IJzE9Z23,Bandlaguda X Road Twd Mehdipatnam,Bandlaguda X Road,17.3598,78.3881
dHUG4Xle,Suncity Twd Mehdipatnam,Suncity,17.3651,78.3958
GFxQbpHA,Tippu Khan Bridge Twd Mehdipatnam,Tippu Khan Bridge,17.3710977510594,78.4044692202793
nIO17N4o,Bapu Ghat Twd Hyderabad,Bapu Ghat,17.374278,78.417719
9kJ7lz1Q,Langer House Twd Mehdipatnam,Langar House,17.38158304700454,78.42183708154298
aL1OO4GH,Alicafe Twd Dilshuknagar,Ali Cafe,17.382256143474176,78.51830407790406
4q7T16Er,Zinda Tilismath Twd Koti,Zinda Tilismath,17.3876,78.5111
E0L28SCX,Kachiguda Kamelatwd Mgbs,Kachiguda Kamela,17.387983492985366,78.50304231082751
FDukZMjs,Chinthal Basthi Twd Patancheru,Chintal Basthi,17.408898,78.460376
3UhhD7eG,Khairatabad Twd Patancheru,Khairatabad,17.414165437048904,78.45863971461557
3OS7bBog,Irrum Manzil Twd Patancheru,Irram Manzil,17.420752974516326,78.45569724523418
fAXfvzII,Nims Hospital Twd Patancheruvu,Nims Hospital,17.4230084956761,78.4543890506029
FAh6nlSi,Punjagutta Twd Miyapur,Punjagutta,17.42710471309943,78.45211654901506
8A7oqeuK,Ameerpet Twd Patancheru,Ameerpet,17.431553,78.44765
Z9DjfexL,Maitrivanam Twd Patancheru,Maithrivanam,17.440045544433556,78.4423641399989
OCMZCOeo,Sr Nagar Twd Patancheru,Sr Nagar,17.442965253360637,78.44073727726938
C5vY3BnB,Esi Hospital Twd Patancheruvu,Esi Hospital,17.448534,78.437619
zsjaTD5B,Erragadda Twd Patancheruvu,Erragadda,17.45617,78.433778
M2X1Ipi9,Bharath Nagar Twd Patancheru,Bharath Nagar,17.467232084021962,78.42877865316824
3DO7lfEx,Moosapet Twd Patancheru,Moosapet,17.47081310529018,78.4266757867274
0JxeENcx,Kukatpally Twd Patancheru,Kukatpally,17.483853963508036,78.41241718136001
yUx0geRd,Ramdev Rao Hospital Twd Patancheruvu,Ramdev Rao Hospital,17.489894025922165,78.40799689214867
DFla4Krg,Kphb Metro Station Twd Patancheru,Kphb,17.494062,78.400453
5JNKM30n,Jntu X Road Twd Patancheru,Jntu,17.496261,78.39441
lXQ2Ri6E,Nizampet X Road Twd Patancheru,Nizampet 'X' Rds,17.498276,78.390314
SX8Vkcd2,Hydernagar  Twd Patancheru,Hydernagar,17.499185,78.383519
QaDZj4Nl,Miyapur Metro Station Twd Patancheru,Miyapur Metro Station,17.496265,78.370945
YAi2DjcQ,Miyapur X Road Twd Patancheru,Miyapur X Road,17.496480967308223,78.36260927590494
VocKUPzH,Miyapur Twd Patancheru,Miyapur,17.495772,78.357949
rmYfcZ5Z,Allwyn X Rd Twd Patancheruvu,Allwyn X Road,17.4939180409565,78.35006654167384
Y9F02Tzl,Madeenaguda Twd Patancheru,Madeenaguda,17.494912,78.340601
rfBAovF9,Gangaram Twd Patancheru,Gangaram,17.4950921682438,78.33270711916356
n9wOSYw8,Chandanagar Twd Patancheru,Chandanagar,17.494893,78.323144
Fyjq1kdg,Alwyn Twd Patancheruvu,Allwyn,17.524761626125688,78.27171920538208
kduNCBUS,Lingampally Twd Uppal,Lingampally,17.49520733476956,78.31726010294108
p7cz7tF2,Chandanagar Twd  Uppal,Chandanagar,17.495161277595447,78.32297623157503
Md3ixzA9,Gangaram Twd  Uppal,Gangaram,17.49517406827654,78.33089947700502
B4DT0HD4,Madinaguda Bus Stop Twd Koti,Madeenaguda,17.49539,78.340708
hAUDjfku,Allwyn X Road Twd Koti,Allwyn X Road,17.49441141826665,78.3522099578215
NZVBKXVQ,Miyapur Twd Uppal,Miyapur,17.496693595190155,78.36077123888194
O2WcwZw9,Miyapur X Road Twd Rgia,Miyapur X Road,17.496837651442597,78.36358365057903
5tRdKNc0,Miyapur Metro Station Twd Uppal,Miyapur Metro Station,17.496817,78.371098
D0CKSBuN,Hydernagar Twd Uppal,Hydernagar,17.49954,78.383844
BcrTembT,Nizampet X Road  Twd Jntu,Nizampet 'X' Rds,17.498657,78.390476
Yjlj2QcH,Jntu X Rd Twd Uppal,Jntu,17.496724316481544,78.39444637064955
jKdphPgN,Kphb Twd Mgbs,Kphb,17.49455752423557,78.40080993079125
5N6sI7Xj,Vivekanandnagar Colony  Twd Koti,Vivekananda Nagar Clny,17.486536,78.410808
6ieMkQHe,Kukatpally Twd Koti,Kukatpally,17.483715815504528,78.41292410889584
ag157Sbi,Moosapet Twd Koti,Moosapet,17.472707091812815,78.42565119365365
P7COoExj,Bharath Nagar Twd Koti,Bharath Nagar,17.467129663064462,78.42903616679668
LIzlAAM2,Erragadda Twd Mgbs,Erragadda,17.45278567589183,78.43578995884637
UQN34MTt,Esi Hospital Twd Koti,Esi Hospital Erragadda,17.446138,78.439221
MTUln49h,Sr Nagar Twd Uppal,Sr Nagar,17.440269,78.442599
4SATTACn,Maitrivanam Twd Koti,Maithrivanam,17.43784249215113,78.44349316287646
E7s4NexM,Ameerpet Twd Koti,Ameerpet,17.431749,78.447983
JMkWVQta,Punjagutta Twd Koti,Punjagutta,17.42642205664003,78.45273748126836
ayYyCeX1,Nims Hospital Twd Koti,Nims Hospital,17.423163778891862,78.45452783183428
17u3Dlmo,Irrum Manzil Twd Koti,Irram Manzil,17.42052788888913,78.45618563834383
F7NYzY8g,Khairatabad Twd Koti,Khairatabad,17.4128396608948,78.46056819441273
HffUPsTS,Zinda Tilismath Twd Uppl,Zinda Tilismath,17.38763154398469,78.5111425817013
NIknWgGq,Ali Cafe Twd Uppal,Ali Cafe,17.38251984859237,78.51804793565577
SBmkG9NJ,Bjr College Twd Nims,Bjr College,17.40485709447515,78.4610563497947
3y1ViY7J,Koti Bus Terminal,Koti,17.38467000545223,78.48439474098421
m9io71dj,Masab Tank Twd Jublee Hills,Masab Tank,17.40426080475889,78.45190465450288
qo0aajne,Pension Office Twd Panjagutta,Pension Office,17.4074738361027,78.4510845331515
vrnYxHIG,Banjara Hills Kaman Twd Kondapur,Banjara Hills Kaman,17.40828835679363,78.43872958694126
AGb9Nb0A,Vengalrao Building Twd Kondapur,Vengal Rao Building Road No-12,17.412,78.432
f5ucfi9s,Mla Colony Twd Kondapur,Mla Colony,17.414103,78.424086
EDUC3plA,Apollo Hospital Twd Kondapur,Apollo Hospital-Jublie Hills,17.41858264313416,78.41278198974994
py4aHdMg,Road No.45 Twd Ambedkar University,Road No 45,17.424704244375192,78.40919136999675
zHKneATL,Peddamma Temple Twd Ambedkar University,Peddamma Temple,17.427571181131746,78.40541203530215
TJW89ejx,Dr Br Ambedkar University Twd Madhapur,Ambedkar Open University,17.43422487736757,78.3963711479346
VpkEjYQG,Cable Bridge Twd Madhapur,Cable Bridge,17.435749097719064,78.39440345764162
YfdCrVG1,Madhapur Ps Twd Shilparamam,Madhapur Police Station,17.439457006975644,78.39601546650421
dfVfHiYS,Madhapur Petrol Pump Twd Image Hospital,Madhapur Petrol Pump,17.441157642770374,78.38953256607057
wvP3Epey,Image Hospital Twd Kondapur,Image Hospital,17.44635826786167,78.38500500963214
UqKAXjCm,Hitech City Twd Kondapur,Hitech City (Cyber Towers),17.4508,78.3817
LRe7WRO9,Shilparamam Twd Kondapur,Shilparamam,17.45383621561363,78.37897940910047
MfWzlWid,Hitex Twd Kondapur,Hitex,17.455461305725972,78.377545773983
GTXNIgnf,Jayabheri Twd Kondapur,Jayabheri,17.458138706147768,78.37000608444217
GGNgPrOC,Kothaguda X Rd Twd Kondapur,Kothaguda X Roads,17.459356644845546,78.36604171514897
5yqYXf1E,Kondapur Terminal,Kondapur,17.465164655953025,78.36369752883913
ICTzJR7V,Kothaguda X Road  Twd Koti,Kothaguda-Kondapur,17.45862998131373,78.368176817894
yIv2OeeO,Jayabheri Twd Koti,Jayabheri,17.458260258877786,78.37007883920154
aXaG6whU,Hitex Twd Koti,Hitex,17.455114983912377,78.37811172521941
DeXR37jX,Hitech City Twd Koti,Hitech City (Cyber Towers),17.449950838909988,78.38257357983787
NoZXEJpV,Image Hospital Twd Koti,Image Hospital,17.44395045305339,78.38722054563779
ZWRRdBlS,Madhapur Petrol Pump Twd Koti,Madhapur Petrol Pump,17.44141997386607,78.38989223005285
WAUCrxs7,Madhapur Ps Twd Koti,Madhapur Police Station,17.438993871743982,78.39703739700711
blCozfco,Cable Bridge Twd Ambedkar University,Cable Bridge,17.43563650295777,78.39453756809237
VWi0fX4e,Dr Br Ambedkar University Twd Panjagutta,Ambedkar Open University,17.434449081110078,78.39658145648214
widmsCfp,Peddamma Temple Twd Punjagutta,Peddamma Temple,17.427806596983867,78.40561589897946
psb3CiV9,Road No.45 Twd Panjagutta,Road No 45,17.424878264855906,78.40943455696107
smY2COrl,Apollo Hospital Twd Koti,Apollo Hospital-Jublie Hills,17.418275683166808,78.41346856577707
zzgotOlz,Mla Colony Twd Punjagutta,Mla Colony,17.414393,78.424366
zKZkeMs6,Vengalrao Building Twd Koti,Vengal Rao Building Road No-12,17.4120950483391,78.43205898657887
Cbj5tbV5,Banjara Hills Kaman Twd Koti,Banjara Hills Kaman,17.409517056636123,78.4380161733233
0EWpgffm,Pension Office Twd Mehdipatnam,Pension Office,17.40788488643572,78.45115899336824
Iki5lvGg,Kondapur Twd Koti,Kondapur,17.463916132468114,78.36725413799287
hsnDsySD,Care Hospital Twd Secunderabad,Care Hospital-Banjara Hills,17.41362673174932,78.45043346346029
jFSbgryA,Nandi Nagar,Nandi Nagar,17.419862286214503,78.4308694328707
A3gmwwj9,Care Hospital Twd Rgia,Care Hospital-Banjara Hills,17.413632810042,78.4506118297576
WQ4ePWfA,Telangana High Court Twd Cbs,Telangana High Court,17.370175,78.474051
7MdXjeIa,Pc Tanda Twd Isnapur,Pc Tanda,17.53705168527806,78.24282765731111
0l2E0UAI,Muthangi Twd Sangareddy,Muttangi,17.5424509031418,78.2266309484839
UpGoAMox,Isnapur  Twd Sangareddy,Isnapur,17.547367892039865,78.21183085441591
eHbnVL9F,Isnapur Twd Mgbs,Isnapur,17.54717299357578,78.2125073424965
3McYaDDT,Muthangi Twd Patancheruvu,Muttangi,17.5427159207682,78.2266661524772
vGbfDTyv,Pc Tanda Twd Koti,Pc Tanda,17.53711754085447,78.24303030919492
KUmRnItI,Jubilee Hills Checkpost Twd Madhapur,Jubilee Hills Checkpost,17.42761122178455,78.41419810027435
55C1Tg1j,Usha Kiran Movies Twd Peddamma Temple,Ushakiran Movies,17.42996559965487,78.41087759978637
XhtuWNK7,Peddamma Temple Twd Madhapur,Peddamma Temple,17.43178261319136,78.40686500487101
7MFTYaN6,Kondapur Twd Hafizpet,Kondapur,17.464,78.367
UZLVMJZP,Cr Foundation Twd Hafizpet,Cr Foundation Rd,17.473514,78.364022
KygDhDqC,Hafeezpet Twd Allwin X Road,Hafeezpet,17.478294457667268,78.3617451051432
Cp59Yb6X,Deepthi Sri Nagar Twd Patancheruvu,Deepthi Sri Nagar,17.494731,78.345525
THhHj4EN,Deepthisrinagar  Twd Koti,Deepthi Sri Nagar,17.495068,78.345604
TW2rdSwj,Allwyn X Rd Twd Hafeezpet,Allwyn X Road,17.491963547858898,78.35304111255302
j99JCHUS,Hafeezpet Twd Kondapur,Hafeezpet,17.4795124796214,78.36128352752179
5LwOZkFg,Cr Foundation Twd Gachibowli,Cr Foundation Rd,17.473431,78.364314
Zwyl6fdB,Peddamma Temple Twd Koti,Peddamma Temple,17.43159834633586,78.40720025612069
RmEz87YD,Ushakiran Movies Twd Koti,Ushakiran Movies,17.430165455368805,78.41104923840241
h2hMOYiv,Jublee Hills Check Post Twd Secunderabad,Jubilee Hills Checkpost,17.427713779418717,78.41647798512466
2GQGAQJB,Nims Twd Mehdipatnam,Nims Hospital,17.421459243849505,78.44896227121355
MCux42LE,Gvk Mall Twd Koti,Gvk Mall,17.41794804379372,78.44901859925332
cz4pE5ER,G.V.K. Twd Ameerpet,Gvk Mall,17.418730990367045,78.44810396432878
ueRNhDvS,Nims Hospital Twd Uppal,Nims Hospital,17.421953360823977,78.4491151571274
AuBlETTZ,Canara Nagar Twd Pochampally,Canara Nagar,17.40729559389106,78.59486907569664
5g4se2Gv,Khairatabad Rto Twd Koti,Khairatabad,17.415785,78.457715
YY5SqKbk,Punjagutta Twd Patancheruvu,Punjagutta,17.426322878920914,78.45262885786775
DqrzaqZu,Pvr Mall Twd Patancheruvu,Pvr Mall Bus Stop,17.429381,78.450406
lRqEgaCy,Prashanth Ngr Twd Jbs,Prashanth Nagar Bus Station,17.474763993804103,78.42554926383187
7XcsjLgc,Balanagar Twd Jeedimetla,Balnagar,17.467879257671523,78.44608425580633
odvoWxTv,Idpl Water Tank Twd Jeedimetla,Idpl Water Tank,17.481725449290504,78.44902396155263
eE6hZh6A,Idpl Colony Twd Jagadgirigutta,Idpl Colony,17.48791105,78.45000699
m180Kw2G,Ganesh Nagar Twd Jeedimetla,Ganesh Nagar Chintal,17.49089,78.45099
2mWqvKcq,Chintal Twd Jeedimetla,Chintal,17.4954,78.452103
xmSPBDXm,Quthbullapur X Rd Twd Jeedimetla,Quthubullapur X Road,17.498897390179707,78.45175981428258
CSMDq4oC,Hmt Twd Gdm,Hmt,17.502845713132185,78.45028734281547
WQorkUId,Gajularam X Road Twd Jeedimetla,Gajularam X Road,17.510098,78.447706
G1qKP8Cw,Shapur Nagar Twd Jeedimetla,Shapur Nagar,17.51600121891858,78.44690233469011
U3va4YT2,Rythubazar-Jdm Twd  Jeedimetla,Rythu Bazar,17.517610097781848,78.44659120793494
r2e2nKni,Jeedimetla Substation Twd Jeedimetla,Sub Station-Jeedimetla,17.522757333829,78.443386182835
cR5ySdRd,Jeedimetla Twd Gandimysamma,Jeedimetla,17.52636037428321,78.44031216836981
Tv9yBqAe,Saibaba Nagar Twd Gandimaisamma,Saibaba Nagar,17.536032,78.434701
R0Cm6Ou4,Suraram X Road Twd Bahadurpalle,Suraram X Road,17.5414896115876,78.43375414609909
5E4f69aT,Bahadurpally X Road Twd Gandimaisamma,Bahadur Pally X Road,17.5605816217093,78.4307647277243
o9dJvoaR,Gandimaisamma Twd Gagillapur,Gandimaisamma,17.57507524147536,78.42319428755698
AttYFWn7,Dommari Pochampally Twd Gandimaisamma,Dommari Pochampally,17.5914615524924,78.4181389707521
9WKRY32C,Dundigal Bus Station,Dundigal,17.607068231624,78.4162946417927
UBnpQRqJ,Gandimaisamma Twd Jeedimetla,Gandimaisamma,17.57506285953001,78.42333907402804
GAstXCkZ,Bahadurpally X Road Twd Jeedimetla,Bahadur Pally X Road,17.55997035277117,78.4310880413114
CM04iqbe,Suraram X Road Twd Secunderabad,Suraram X Road,17.541284,78.433879
12LvRz4y,Sai Baba Nagar Twd Secunderabad,Sai Baba Nagar,17.535778,78.434947
P3E8zTnC,Jeedemetla Twd Secunderabad,Jeedimetla,17.52668,78.440339
QCerdw5u,Jeedimetla Sub Station Twd Secunderabad,Sub Station-Jeedimetla,17.522705,78.443744
8i4V23bl,Raith Bazar Twd Secunderabad,Rythu Bazar,17.51763312257674,78.4467548113273
IhCYXkvc,Shahpur Nagar Twd Secunderabad,Shapur Nagar,17.51331290617655,78.4474763274193
CBCRWwzJ,Gajularamaram X Road Twd Secunderabad,Gajularam X Road,17.509412,78.448168
o5ofBU5W,Quthbullapur X Rd Twd  Secundrabad,Quthubullapur X Road,17.499095624057258,78.45181345628471
n6IjCqPi,Hmt Twd Kachiguda,Hmt,17.502840595626637,78.4504749265529
ICyggC8Y,Chintal Twd Balnagar,Chintal,17.495457,78.452336
P4ygyI2C,Ganesh Nagar Twd Secunderabad,Ganesh Nagar Chintal,17.491376,78.45136
1dbVPVSh,Idpl Colony Twd Secundrabad,Idpl Colony,17.487432996161004,78.45032751653562
fsopSgWz,Idpl Water Tank Twd Balanagar,Idpl Water Tank,17.481157366655744,78.44912856438341
pA8QrbqG,Balanagar Twd Secunderabad,Balnagar,17.46697098901906,78.44626128673555
doMjm67z,Balanagar Twd Patancheruvu,Balnagar,17.467078,78.445087
wzqS7LeU,Prashanth Nagar  Twd Patancheru,Prashanth Nagar Bus Station,17.473781884192416,78.42697620038051
UefVeqR5,Punjaguta Metro Station Twd Koti,Panjaguta Metro Station,17.429261,78.450954
kOM90j5y,Somajiguda Twd Koti,Somajiguda,17.415926245138664,78.45783231827038
1EVLfRYi,Shadan College Twd Koti,Chintal Basthi,17.408954704223085,78.460584290468
PwlGD5EA,Chadarghat Kedia College Twd Kachiguda,Chadarghat,17.381472,78.492653
dssPVYra,Quthbullapur Xroad Twd Suchitra,Quthubullapur X Road,17.507785241794494,78.46013367176057
GsFFGRJK,Nallagandla Twd Thota,Nallagandla,17.477248324886258,78.30654367964536
AuWxhbS1,Indira Nagar Twd Kollur,Indira Nagar,17.471801,78.293052
NAIZwtcD,Tellapur Twd Kollur,Tellapur,17.470169084284382,78.2882201505367
rzg6kpCd,Osmannagar Milestone Twd Kollur,Milestone,17.445716017664715,78.26228857040405
9NaaZczG,Kollur Twd Edunagulapally,Kollur-Shankarpally,17.44268112798566,78.25294910789809
PFiqATEH,Milestone Twd Patancheruvu,Mile Stone,17.4557,78.2419
oR2EN5eE,Bojya Tanda Twd Kollur,Bojya Tanda,17.4447,78.2404
wK1ZWRwh,Edulanagulapalle,Edulanagulapalle,17.4406,78.2264
5KwUxcPW,Milestone Twd Kolluru,Mile Stone,17.4554,78.2425
HxsK5N2C,Kollur Milestone Twd Lingampally,Mile Stone,17.445843959180493,78.26234489679338
pJnRECtv,Tellapur Twd Lingampally,Tellapur,17.470366107686473,78.28812091659536
JiLBcoEY,Indira Nagar Twd Nallagandla,Indira Nagar,17.47193703331871,78.29297304153444
TtImbfkg,Purana Pool Twd Jumerat Bazar,Puranapool,17.369,78.459
0rdcWYsq,Toli Masjid Twd Jiyaguda,Toli Masjid,17.37507989964164,78.43776807170839
16GQJz2H,Kachiguda Kamela Twd Uppal,Kachiguda Kamela,17.388067957367774,78.50300610060256
uBRC6E1v,Abids Twd Nampally,Abids Gpo,17.388783479337054,78.47640392706282
S4ZgJ4j0,Koti Maternity Hospital Twd Cbs,Koti Maternity Hospital,17.38550191065701,78.48705097609947
YkeBNOUj,Government Degree College Twd Patancheruvu,Govt Degree College Kukatpally,17.48175519,78.41551512
8Fs7ywsy,Vasanth Ngr Bus Stop Twd Patancheruvu,Vasanth Nagar Bus Stop,17.498712,78.386862
V7kdAGRo,Anajpur Pati,Anajpur Pati,17.266985559113035,78.69741864493649
HsxwV66P,Anajpur Village Twd Sanghinagar,Anajpur,17.27014973526637,78.69371651030924
G9p12EnX,Anajipur X Road Twd Sanghi Temple,Anajpur X Road,17.271276690933423,78.68703246241104
wWvVC1op,Sanghi Temple Twd Hayathnagar,Sanghi Temple (Sanghi Nagar),17.270677339837103,78.67718338782254
xJUzI5GQ,Umarkhanguda Twd Koheda,Umar Khan Guda,17.272034833886767,78.669270868686
5JKBpzAO,Koheada Market Twd Koheada,Koheda Fruit Market,17.279831122952775,78.65154147957166
FXfDNZkp,Koheda Village Twd Hayathnagar,Koheda Village,17.281782710840517,78.63578081130983
QyVTtWDp,Uppariguda Village Twd Hayatnagar,Upparguda,17.294626451634468,78.64826380776906
RWq9HrJD,Gandicheruvu X Road Twd Hayathnagar,Gandicheruvu X Rds,17.309551000814256,78.64753694100601
lwT4qIh2,Laxma Reddy Palem Twd Jbs,Laxmireddy Palem,17.3205565388484,78.6265720024474
BMEY3ApO,Word And Deed Twd Jbs,Word And Deed School,17.320909150707,78.6136220162649
jIGnqtq6,Rtc Colony Twd Dsnr,Rtc Colony Upl,17.328056,78.599494
g3CVmJk7,Hayath Nagar Depot Twd Dilshuknagar,Hayathnagar Bus Depot,17.329992177727636,78.59393297723564
1XFVrKv3,Bhagyalatha Twd Dilshuk Nagar,Bhagyalatha,17.3326600370083,78.58879923820497
PAAUi1nF,High Court Colony Twd Dsnr,High Court Colony-Dsnr,17.334888,78.5848
EqUJBGCm,Autonagar Twd Dilshuknagar,Auto Nagar-Sushma,17.336228,78.576683
4hKYSm5a,Sushma Talkies Twd Lb Nagar,Sushma-Autonagar,17.336679,78.573089
JMhpzU6M,Panama Godown Twd Dilshukanagar,Panama Godowns,17.33799970053927,78.56924325227739
MjEKXkAz,Chintalkunta Twd Dilshuknagar,Chintalkunta Bus Stop,17.340501,78.563096
lyF23GGb,Chintalkunta Check Post Twd Dilshuknagar,Chintalkunta Check Post,17.342627706767566,78.55642760745923
whMygxc9,Bluesea Cafe Twd Tarnaka,Secunderabad,17.4371305954537,78.5051479719086
HqApOlBt,Chintalkunta Twd Hayatnagar,Chintalkunta Bus Stop,17.340883817595213,78.56209784865966
nsLzkHjZ,Panama Godown Twd Hayathnagar,Panama Godowns,17.338402953403982,78.56863975524904
8LFMgL8w,Sushma Theatre Vanasthalipuram Twd Hayath Nagar,Sushma-Autonagar,17.336986,78.573452
XdTavtD9,Autonagar Twd Hayath Nagar,Auto Nagar-Sushma,17.336495,78.576728
p8GTujGn,High Court Colony Twd Hayatnagar,High Court Colony-Dsnr,17.335042,78.585203
DQGu7xHQ,Bhagyalatha Twd Haythnagar,Bhagyalatha,17.332940228836,78.5892717767686
2uOlQMbc,Hayath Nagar Depot Twd Hayath Nagar,Hayathnagar Bus Depot,17.33011503042731,78.59437286848586
9TGZiwiy,Rtc Colony Twd Hayatnagar,Rtc Colony,17.328654,78.598786
9KD6Qf8o,Word And Deed Twd Rfc,Word And Deed School,17.3213989827461,78.6134697808098
VfWv1xKO,Laxma Reddy Palem Twd Rfc,Laxmireddy Palem,17.3207661276856,78.626633479152
qdyOuVOq,Pedda Amberpet Twd Rfc,Pedda Amberpet,17.3214319909812,78.6393264168249
CZt2LyDL,Gandicheruvu X Road Twd Koheda,Gandicheruvu X Rds,17.30956124643898,78.6475744913185
7yoeTHnc,Uppariguda Village Twd Koheda,Upparguda,17.294613643563512,78.64834427272436
sz0LT1cL,Koeda Village Twd Sanghinagar,Koheda Village,17.281808322053735,78.6358666419983
ajCJ16t8,Koheda X Road Twd Sanghinagar,Koheda X Road-Thorrur,17.28293266722743,78.64219112052582
andgnWFq,Koheada Market Twd Sanghi,Koheda Fruit Market,17.280191381438833,78.65167652183416
J3GtTWZn,Umarkhanguda Twd Sanghinagar,Umar Khan Guda,17.27214782053358,78.66941572182553
jvNB2ZHB,Anajipur X Road Twd Anajipur Village,Anajpur X Road,17.271491838977564,78.68693590724284
Q2roBGmK,Habib Nagar Twd Miyapur,Habib Nagar,17.47748242,78.42059523
Q2gnLU7r,Cbcid Colony Twd Uppal,Cbcid Colony-Hydernagar,17.4989268162069,78.38025212287903
NwqcEy3z,Vasanth Nagar Bus Stop Twd Koti,Vasanth Nagar Bus Stop,17.49923794,78.3858737
XmHNScZT,Habib Nagar Twd Jbs,Habib Nagar,17.47799857,78.42047118
Xm2G887A,Patancheruvu Twd Koti,Patancheruvu,17.529541978009505,78.26410711375621
8F84QUv0,Remedy Hospital Twd Miyapur,Remedy Hospital-Kuktplly,17.494976,78.398581
BCXkbzEn,Chadarghat Rose Bakery Twd Mgbs,Chadarghat Rose Bakery,17.377272367082867,78.49122583866122
bf8FVrxy,Brahmanpally X Road Twd Ibrahimpatnam,Brahmanapally X Roads,17.266758613752884,78.5890191819891
PFR4SNzv,Huda Complex Twd Saroor Nagar,Huda X Rd Saroornagar,17.36689463989816,78.5398650247164
XGeIy2l5,Huda Colony Twd Saroornagar,Huda Colony,17.362384279348984,78.53953377402689
bS1MSLsx,Victoria School Twd Saroor Nagar,Victoria Memorial School,17.361879077956782,78.53945198962039
jkbwqw4w,Saroornagar Mandal Office Twd Saroornagar,Saroornagar Mndl Office,17.35727265642704,78.53620245144974
JWDrcXYl,Mch Office Twd Saroornagar,Muncipal Ofc Saroornagar,17.359,78.537
iR0NmrzZ,Saroor Nagar Post Office,Saroor Nagar,17.352559734904823,78.53546233932055
PWediCrV,Saroornagar Mandal Office Twd Dilshuknagar,Saroornagar Mndl Office,17.35730491691448,78.53618905690956
CkkOWKgr,Mch Complex Twd Secunderabad,Muncipal Ofc Saroornagar,17.359,78.537
Y91ljc8k,Victoria School Twd Secunderabad,Victoria Memorial School,17.36193598753628,78.53933928350627
NDZkQKd8,Huda Colony Twd Dilshuknagar,Huda Colony,17.362389143421243,78.53943318211114
VhTXsCWH,Huda Complex Twd Secunderabad,Huda X Rd Saroornagar,17.36743507259916,78.53973628615168
SA2zPWiO,Moosarambagh Twd Uppal,Moosarambhagh,17.3711242901418,78.5147541524288
VG2Fqlqg,Sripuram Colony Twd Amberpet,Sripuram Colony,17.37663702988011,78.51466830665304
sefI86gV,Ali Cafe Twd Amberpet,Ali Cafe Amberpet,17.38206550882997,78.51821154632164
Wi1A6UP7,Golnaka Twd Mgbs,Gol Naka,17.39053663445227,78.50637482478841
eM0iCuBF,Syndicate Bank Twd Secunderabad,Syndicate Bank Shivam,17.398732385244582,78.51256012916566
YrwNfhtT,Prashanth Nagar-Shivam Twd Vidyanagar,Prashanth Nagar-Shivam Road,17.40073131552409,78.51343990585153
hLdxxGbD,Shivam Twd Secunderabad,Shivam Ncc Gate,17.405233270921826,78.51533088153433
wDqsOHCO,Vidyanagar Twd Adikmet,Vidyanagar,17.405003715066933,78.51072453680693
EDD7CZaN,Ramnagar Gundu Twd Secunderabad,Ram Nagar Gundu,17.407518956708184,78.51237241796304
oMKMbf1F,Ramnagar Mee Seva Twd Secunderbad,Ramnagar Mee Seva,17.409177045720323,78.50878961007007
9WnLcplj,Ramnagar X Rd Twd Rtc X Road,Ram Nagar,17.41086043677699,78.50725738529584
iCEipTv0,Ramnagar Twd Secunderbad,Ramnagar,17.40953311564429,78.50663781166078
X8BcAHUa,Vst X Road Twd Secunderabad,Vst Bus Stop,17.404081003430118,78.5037886351347
GqTmKBDr,Tsrtc Bus Bhavan Twd Rtc X Road,Tsrtc Bus Bhavan,17.40566591421969,78.49942937493324
jQvgQPeA,Bhoiguda Twd Secunderabad,Bhoiguda Bus Stop,17.42794790768033,78.50203178822996
DDgeQvKN,Bhoiguda Twd Koti,Bhoiguda Bus Stop,17.428071378633753,78.50220076868148
lwL1zY20,Golconda X Road Twd Rtc X Road,Golconda X Road,17.410802,78.498045
YnGSuglF,Tsrtc Bus Bhavan Twd Vidyanagar,Tsrtc Bus Bhavan,17.4061266043217,78.4986984729767
GdpLeJ1G,Vst X Road Twd Dilsuknagar,Vst Bus Stop,17.40416555532054,78.5044091468442
XmTP4oQr,Ramnagar Twd Dilsukhnagar,Ramnagar,17.40954717987669,78.50658282443116
qwiWay9U,Ramnagar X Road  Twd Vidyanagar,Ram Nagar,17.41097145823182,78.50723862648012
AOavnxz9,Ramnagar Mee Seva Twd Dilsukhnagar,Ramnagar Mee Seva,17.409564441496986,78.50844294198399
tazuGjMO,Ramnagar Gundu Twd Vidyanagar,Ram Nagar Gundu,17.407585448650153,78.51237773895265
R7xKlH6Y,Vidyanagar Twd Shivam,Vidyanagar,17.4049255253298,78.5122652588441
lVoiWMnm,Shivam Road Twd 6 No X Road,Shivam Ncc Gate,17.40374251525729,78.51485073017744
x3beGYEW,Prashanth Nagar-Shivam Twd Saroornagar,Prashanth Nagar-Shivam Road,17.401005200051014,78.51366512766099
g5XKqJft,Syndicate Bank Twd 6 No X Road,Syndicate Bank Shivam,17.3971598530292,78.5121288989435
h3dUxOt7,Golnaka Twd Uppal,Gol Naka,17.39058026336288,78.50635080539323
t67QNigB,Sripuram Colony Twd Dilshuknagar,Sripuram Colony,17.376192232301335,78.51477561853055
waBGSFEW,Musarambagh Twd Dilshuknagar,Moosarambhagh,17.370721533171178,78.51500093552596
PkUgUQw2,Dilsukhnagar Bus Depot,Mile Stone,17.371068,78.525539
7ohLPWpm,Working Womens Hostel Twd Kondapur,Working Womens Hostel,17.421392573559547,78.41074888729611
ggaFNK1b,Working Womens Hostel Twd Koti,Working Womens Hostel,17.42092625549796,78.41124231552347
DkuF8ajC,Amberpet Twd Dilshuknagar,Amberpet,17.390306353560877,78.51645469665527
5Jsa2cry,Orr Twd Rfc,Outer Ring Road,17.3175986217581,78.661840280674
CAf4y5Mn,Ramojifilm City Twd Nalgonda,Ramoji Film City,17.311516,78.683365
vMvkw0ys,Abdullapurmet Twd Nalgonda,Abdullapurmet,17.310007,78.686613
OhviA7kV,Inamguda Twd Nalgonda,Inamguda,17.306523,78.705618
0DezTsQi,Jafferguda X Road Twd Ctpl,Jafferguda X Road,17.306913321905327,78.71553093770618
1DxNpC0z,Batasingaram Twd Suryapet,Bata Singaram,17.3056575377595,78.7288367003202
mMoDIF8Z,Kothagudem Twd Choutuppal,Kothagudem,17.300758996933226,78.73938361667363
iFO6HFif,Dandumailaram X Road Twd Choutuppal,Dandumailaram X Road,17.292541667907287,78.75393211841585
Bx1F0lE0,Toopranpet Twd Choutuppal,Toopranpet,17.29162738005971,78.76089245209059
ZGUfWDKx,Ashoka College Twd Choutuppal,Ashoka,17.28825456592656,78.77005488670733
23CIGReG,Andhol Maisamma Twd Ctpl,Andol Maisamma,17.282048970078797,78.7830501207823
IdFkmzvP,Malkapur Twd Nalgonda,Malkapur,17.280343,78.796394
EtHQ5KB7,Borollagudem Twd Choutuppal,Borollagudem,17.2728970056166,78.81794806569812
hEKGr0me,Kaithapur Twd Choutuppal,Kaithapur,17.267575401091545,78.82716716470516
5o6U1JzN,Yellagiri Twd Choutuppal,Yellagiri,17.2635001983187,78.8390278816223
6Y38y3x3,Koyyalagudem Twd Choutuppal,Koyyalagudem,17.260918650697825,78.84395240416974
2pzMp4DB,Dharmojigudem Twd Ctpl,Dharmojigudem,17.256564163762608,78.87777775585944
ltdAGh7m,Lakkaram Gate Twd Suryapet,Lakkaram,17.256200133297,78.88855420053
W3eaikE1,Choutuppal Bus Stand,Choutuppal Bs,17.254412533861,78.8944798707962
UyS1mnyb,Lakkaram Gate Twd Lb Nagar,Lakkaram,17.2561581891061,78.8865053281188
iktEJq83,Dharmojigudem Twd Mgbs,Dharmojigudem,17.256425915402573,78.87770003948182
dUQ79Lat,Koyyalagudem Twd Mgbs,Koyyalagudem,17.260426753369195,78.84399533271791
KsWfGI4B,Yellagiri Twd Lb Nagar,Yellagiri,17.263234135234,78.8386178389191
nzBeb6JC,Kaithapur Twd Mgbs,Kaithapur,17.2676300500789,78.8266226649284
sj7vAEuA,Borralagudem Twd Lb Nagar,Borollagudem,17.2735706118312,78.8157510012388
TOFkPo9B,Malkapur Twd Hyderabad,Malkapur,17.280127,78.7965
12pJETKr,Andhol Maisamma Twd Mgbs,Andol Maisamma,17.28241271787879,78.78220795746522
uU1QWRWE,Ashoka College Twd Hayathnagar,Ashoka,17.28819054171323,78.76999323716228
GIbzlNRL,Toopranpet Twd Hyderabad,Toopranpet,17.291326,78.76186
hvR3himq,Dandumailaram X Road Twd Hayathnagar,Dandumailaram X Road,17.292286850430184,78.75417617827692
vtACzCrV,Kothagudem Twd Lb Nagar,Kothagudem,17.30059500440029,78.73924942838704
EhPooyEv,Batasingaram Twd L B Nagar,Bata Singaram,17.3052670169839,78.7292400375008
ANNOm3sh,Jafferguda X Road Twd Mgbs,Jafferguda X Road,17.30654248791529,78.71559247495323
u5FObTEK,Inamguda Twd Hyderabad,Inamguda,17.306185,78.705423
bYNoEFSN,Abdullapurmet Twd Koti,Abdullapurmet,17.30977,78.686607
CEX84LLR,Ramoji Film City Twd Jbs,Ramoji Film City,17.31132,78.683128
UxlFgM6j,Orr Twd Jbs,Outer Ring Road,17.3172867935157,78.662109152387
FmUchy2Z,Lb Nagar (District Stop) Twd Narketpally,Lb Nagar,17.343705326099684,78.55552911758424
4eTcIx5j,Gandimaisamma Twd Rfc,Gandi Mysamma Temple-Abdullahpurmet,17.31511536057297,78.67383340284576
0UU4xkjZ,Brilliant Engg College Twd Choutuppal,Brilliant Engg College,17.308324429344953,78.70123209161318
aYQr0kfY,Batasingaram Village Twd Kothagudem,Bata Singaram,17.301687053699922,78.72640190174954
Sg6jvF4D,Netaji Institute Of Engineering And Technology Twd Pcpl,Netaji Institute Of Engineering And Technology,17.307,78.767
7P8FceEp,Milestone,Thipaiguda Milestone,17.20503009536107,78.75374956989856
wogU2xCY,Narayanagiri X Rd,Narayanagiri  X Road,17.328,78.785
mgMNI6Rp,Jalalpur Twd Pcpl,Jalalpur,17.332,78.801
Lklu3I5q,Bhoodhan Pochampally Twd Bibinagar,Pochampally,17.34851364254166,78.82081295306055
k2jPxrLa,Revan Palle,Revan Palle,17.357,78.831
1bLFQ7uG,Gousekond,Gouse Konda,17.375,78.834
AbVRxLMd,Gousekond Twd Dsnr,Gouse Konda,17.375,78.834
E1DNBWtD,Revan Palle Twd Dilsukhnagar,Revan Palle,17.357,78.831
9afmQNBK,Jalalpur Twd Mgbs,Jalalpur,17.33199432679553,78.80100857649762
y1H3hSwq,Narayanagiri X Rd Twd Dilsukhnagar,Narayanagiri  X Road,17.327863001684143,78.78502294900602
syOADYRI,Netaji Institute Of Engineering And Technology Twd Mgbs,Netaji Institute Of Engineering And Technology,17.30672114302922,78.76707898254053
7bRgaCv2,Batasingaram Village Twd Abdullapur Met,Bata Singaram,17.301589687326484,78.72656282495545
pEO8eLRF,Brilliant College Twd L B Nagar,Brilliant Engg College,17.308,78.701
p1z6WxxP,Gandimaisammma Twd Hayath Nagar,Gandi Mysamma Temple-Abdullahpurmet,17.315006257387218,78.67375543411036
KBNcnnNc,Amberpet Twd Secunderabad,Amberpet,17.391209892839633,78.51627230644227
EULzHBDa,Lb Nagar Metro Stn Twd Hayatnagar,Lb Nagar Metro Station,17.349716716334726,78.54816921750754
5NY0wRTG,Kamineni Hospital Twd Mansoorabad,Kamineni Hospital,17.353082137073116,78.55591533846103
GZbBPEBn,Sahara Estates,Sahara Estate,17.347843161185242,78.5692395886082
fXQQH2MZ,Lb Nagar Metro Station Twd Mgbs,Lb Nagar Metro Station,17.350114952510932,78.54750922857595
NYWivGae,Middle Tank Bund Twd Jbs,Tank Bund,17.422315,78.485023
iSB14TRl,Boats Club Twd Jbs,Boats Club,17.42643549174319,78.48663658307973
v8JMo7Nn,Bible House Twd Secunderabad,Bible House,17.43064135723396,78.49224509513486
noFGCQkJ,Bata Twd Secunderabad,Bata,17.436004991176674,78.49370419380125
xgJ1CUA5,Taj Tristar Patny Twd Jbs,Patny Taj Tristar,17.440529183095602,78.49504530429842
QBQ7ICdK,Shivaganga Mile Stone,Mile Stone,17.355473587263763,78.55464175806685
rhC1eEb8,Chinna Kodur Twd Valigonda,Chinna Kondur,17.299278,78.900798
jD2Q10Nc,Pedda Koduru Twd Valigonda,Peddakodur Kalan,17.317341,78.903445
AzuDsLCp,Nakkalagudem Twd Valigonda,Nakkalagudem,17.341927,78.917149
pPUCIACA,Thummalguda Twd Dsnr,Thummalaguda,17.332,79.053
r9vV0q0c,Sangam Twd Dilsukhnagar,Sangam,17.361322908087228,78.9315319241761
EEVgKBV9,Varkatpally,Verkatpalle,17.345,78.943
hQbbkUjw,Gokaram Mile Stone Jalukaluva Twd Gokaram X Road,Gokaram,17.337083,78.990639
XiSQV35g,Nemilikaluva,Nemili Kalawa Valigonda,17.343,79.01
hNXSsoVC,Gokaram X Road Twd Hyderabad,Gokaram X Road,17.333691916094992,78.99753570591716
pCiG9q5L,Gollapally Mile Stones Twd Nagaram X Road,Gollapally,17.347694,79.016889
3sZ6V9Rr,Nagaram Twd Bhuvnagiri,Nagaram -Valigonda,17.356680340374226,79.029140173611
NwBvo5j5,Valigonda Bus Station,Valigonda,17.37892086440061,79.01767903753928
19BWVxTi,Gokaram X Rd Twd Choutuppal,Gokaram,17.333693140559244,78.99746402900058
zeSxijPl,Varkatpally Twd Dsnr,Verkatpalle,17.345,78.943
KIWkTW9j,Nakkalagudem Twd Choutuppal,Nakkalagudem,17.34191,78.917177
1HnhDCTx,Pedda Koduru Twd Choutuppal,Peddakodur Kalan,17.317421,78.903534
DeBjbZNi,Chinna Koduru Twd Choutuppal,Chinna Kondur,17.299286,78.900862
s2oQmlTe,Lingoji Guda Twd Mgbs,Lingoji Guda-Cpl,17.243831943111932,78.9267307516921
ntOKtwRo,Panthangi Tollplaza Twd Vijayawada,Panthangi Toll,17.233045164001,78.96043199370501
fAzOeeIp,Reddybai Twd Nalgonda,Reddybai-Cpl,17.229412262835837,78.97223714754423
Z5mcNXJA,Gundrampally Twd Nalgonda,Gundram Palle,17.2329737595863,78.9854506775737
YnMskFwk,Veliminedu X Road,Mile Stone,17.240014425506516,79.02346603617725
yRZ7F7Sl,Velminedu,Veliminedu-Ctl,17.2340222762381,79.0217861463554
1AFiZJ3D,Gundrampally Twd Hyderabad,Gundram Palle,17.2326397646939,78.98554019629951
kB70SGwW,Reddybai Twd Mgbs,Reddybai-Cpl,17.229185139730742,78.9722746511655
QkB6ZBXo,Chadarghat Twd Koti,Chaderghat,17.3808782863929,78.4912418747046
5Kopb4TD,Afzalgunj Twd Charminar,Afzalgunj,17.373,78.477
Ro4bP6Vw,G S I Gate,Gsi Gate,17.364391050905258,78.56999158859254
xWvdaTS4,Nayapool Salarjung Museum Twd Cbs,Nayapul,17.371368,78.477861
GPNW7g0E,Chadarghat Niagara Hotel,Chadarghat Rose Bakery,17.377546264405506,78.49131166934968
fGL8ebtH,Saroornagar Twd Dilsukhnagar,Saroor Nagar,17.354703868364005,78.53200882673265
mCiQo8le,Ramanthapur Tv Studio Twd Mgbs,Ramanthapur Tv Studio,17.39656448727552,78.5299462080002
RYYPWK86,Amberpet Police Line Twd Dilshuknagar,Police Line-Amberpet,17.386411867845965,78.51667329004796
pXxlBybY,Chintalkunta Check Post Twd Choutuppal,Chintalkunta Checkpost,17.342,78.558
HVbtuFZX,Raithu Bazar Twd Vaidehi Nagar,Raithu Bazar-Vsp,17.3303,78.5755
BS1DyocP,Shivasindu Twd Ngos Colony,Shiva Sindhu Public School,17.321277397122508,78.57226074939857
7YQlmEbH,Moghal College Twd Mehdipatnam,Moghal College,17.314423807647206,78.46194027695982
D6y4m7A5,Ag College Twd Shamshabad,Ag College,17.3137973031086,78.4247664851953
E0bcVhMF,Agriculture University,Jayashankar Agriculture University,17.319814035702876,78.41827243535296
eRLCw0uQ,Rajendra Nagar Twd Himayatsagar,Rajendranagar,17.321895746130043,78.40210138817937
LntxNwkd,Rajendra Nagar Twd Dairy Farm,Rajendranagar,17.32201353135999,78.40169370016595
LTnmMvR6,Rajendra Nagar Extension Twd Dairy Farm,Rajendranagar,17.329843252452157,78.40913413586011
n3iH03S5,Budvelvillage Twd Dairy Farm,Budwel,17.330757641542274,78.40723526101134
vqEeoNzr,Nppti Twd Dairy Farm,Nppti,17.337025458538285,78.41178953647615
RdmJtWwI,Moghal College Twd Uppal,Moghal College,17.314572410792863,78.46201927360683
VDiNAleU,Dairy Farm Twd Rajendranagar,Dairy Farm Upperpally,17.345018740917144,78.41561235487461
al3vmX3N,Nppti,Nppti,17.336807796198393,78.41185927391055
9DCzryFF,Budvel Twd Rajendranagar,Budvel,17.333259172659325,78.40973496437074
vfnAXqAg,Ag College Twd Mehdipatnam,Ag College,17.3145603362813,78.424698331455
JbHRqkel,Vaidehi Nagar Twd Raithu Bazar,Vaidehi Nagar,17.321078851190137,78.5695517063141
IAGvk4V9,Raithu Bazar Twd Ganesh Temple Vanasthalipuram,Raithu Bazar-Vsp,17.33049869563848,78.57515748841485
lLDmBejQ,Amberpet Police Line Twd Sec-Bad,Police Line-Amberpet,17.3866434939553,78.51655929991901
Q1wtIIqn,Netaji College Mile Stone Twd Pochampally,Mile Stone,17.318,78.776306
BF5azjDM,Bheemanpalli,Bhimanpalli Pochampally,17.328,78.836
vFPdATPq,Kanumukula Twd Valigonda,Kanumukula,17.331402879263578,78.83479534591423
0KSTpoR3,Kanumukkula Mile Stone Twd Jiblakpally,Mile Stone,17.325028,78.854806
WF2yY2PF,Jiblapally,Jiblak Palle,17.315,78.866
YQJPdZac,Jiblakpally Mile Stone Twd Dhantur,Mile Stone,17.333374,78.862707
I3XicrxA,Danthur,Dantur,17.339,78.878
fUfmoZHE,Vanka Mamidi,Vanka Mamidi,17.356,78.883
480EnC2b,Challavanigudem,Challavanigudem-Sangam,17.358616696976892,78.89549363977086
r6z60Nrs,Dharmareddy Pally,Dharma Reddy Palle,17.362,78.908
t7uA0Fv3,Sangam,Sangam,17.362,78.933
ps347ZrG,Varkatpally Mile Stone Twd Gokaram,Mile Stone,17.342444,78.955167
63AxIWhN,Gokarnam,Gokaram - Valigonda,17.342959993240115,78.97237129842142
ZsvC3U80,Gokaram X Road Twd Mothkur,Gokaram X Road,17.33360736319187,78.99723529640323
2vsoUtP1,Golle Palle Twd Valigonda,Golle Palle,17.342448234697,79.00962978934622
pqbvvyjJ,Nagaram Twd Valigonda,Nagaram -Valigonda,17.357,79.029
WxfcsajW,Valigonda Twd Dilsukhnagar,Valigonda,17.378321969816085,79.01797144984681
JLwoEXAb,Nagaram Twd Dilsukhnagar,Nagaram -Valigonda,17.356388070215257,79.02891755570816
vi8ZhZrN,Nagaram X Roads Mile Stone Twd Gopally,Mile Stone,17.347639,79.016917
DoKUFXnd,Golle Palle Twd Dilsukhnagar,Golle Palle,17.342457,79.009793
juh5H1Vn,Gokaram X Road Mile Stone Jalukaluva Twd Gokaram,Mile Stone,17.337,78.990639
KAZ7FZta,Gokarnam Twd Dilsukhanagar,Gokaram - Valigonda,17.34288316327299,78.97242495388183
auhDClV7,Gokaram Mile Stone Twd Varkatpally,Mile Stone,17.342361,78.955167
qm26kVJC,Dharmareddy Pally Twd Dsnr,Dharma Reddy Palle,17.361,78.909
fED3QI3S,Salonigudem Twd Dilsukhnagar,Challavanigudem-Sangam,17.358467267665212,78.89553672206064
umu2SyuE,Vankamamidi Twd Dsnr,Vanka Mamidi,17.357,78.883
7Hmt0KFT,Danthur Twd Dilshuknagar,Dantur,17.343095934630433,78.86300938044725
t9mH91M2,Dhantur Mile Stoe Twd Jiblakpally,Mile Stone,17.333345,78.862835
5oLHlfUS,Jiblak Palle Twd Dilsukhnagar,Jiblak Palle,17.3156685410196,78.86531338558292
q3XoyKXr,Jiblakpally Mile Stone Twd Kanumukla,Mile Stone,17.324973516045414,78.85472417375613
VGeut10R,Kanumukula Twd Dsnr,Kanumukula,17.331397789007813,78.83464783777823
tBBJCcMf,Bheemanpalli Twd Dilsukhnagar,Bhimanpalli Pochampally,17.327595355147324,78.83559456835448
jZQiGJrn,Bhoodan Pochamplly Twd Yadagirigutta,Pochampally,17.346470580110555,78.81960871106962
iuSwSZcQ,Narayanagiri X Roads Miles Stone Twd Netaji College,Mile Stone,17.318,78.776528
Md7cHNIv,Milestone Twd Patancheruvu,Mile Stone,17.498901,78.220089
pF8cqHn0,Mukthapur Twd Yadagirigutta,Mukthapur,17.358663117692643,78.80922317753817
9ZldPtBV,Julur Twd Yadagirigutta,Juloor,17.38607274141633,78.78483656370018
VIW1xFb1,Kapraiapply,Khapraipalle,17.397,78.808
KFyJ7GPD,Peddaraola Pally Mile Stone Twd Kapraya Pally,Mile Stone,17.401167,78.812889
9FPJPFeu,Pedda Ravulapally,Peddaravulapalle,17.408,78.835
9AHhWUQ5,Pedda Ravula Palle,Pedda Ravula Palle,17.40804661,78.83710834
4f0toDsB,Julur X Road Twd Pochampally,Juloor,17.382694202843773,78.78634823238293
Zh8SVJqa,Mukthapur Twd Pochampally,Mukthapur,17.358830745940484,78.80910504334318
mS29TVPi,Agapally Twd Mall,Agapally,17.13424418569693,78.67170095443727
yHuojUCF,Agapally Twd Ibrahimpatnam,Agapally,17.134495375678636,78.6714890599251
LuYKlMYO,Bio Diversity Complex Twd Hitech City,Bio Diversity,17.429606,78.374823
Iu99uRam,Raidurgam Metro Station Twd Jntu,Mind Space Centre,17.441880268699812,78.37711133564734
ZCaPA2qa,Tcs Deccan Park Twd Jntu,Tcs Deccan Park,17.4463122257385,78.37737679767666
SdH39K9v,Cyber Gateway Twd Jntu,Cyber Gateway,17.447384586072754,78.37801518233891
5dtFSqm8,Hitech City Twd Jntu,Hitech City (Cyber Towers),17.452089934630955,78.38144436276357
NW82gWib,Chandranaik Thanda Twd Jntu,Chandranaik Thanda,17.46644975236609,78.3858369526104
5VNDEERp,Kphb Fourth Phase Twd Jntu,Kphb 4Th Phase,17.473316,78.387581
uJLcn4ex,Forum Mall Twd Jntu,Forum Mall,17.484002347897878,78.38969349772697
AfJsC7EZ,Kphb Colony Mig Twd Jntu,Kphb Colony Mig,17.487624796295755,78.39127864691491
vWcb41Po,Jntu Twd Rgia,Jntu,17.49465219853281,78.39452147587883
ylD4PnpR,Kphb Colony Mig Twd Cyber Towers,Kphb Colony Mig,17.487399792295292,78.3914563594773
ssSukcjp,Forum Mall Twd Gachibowli,Forum Mall,17.483600692088107,78.3898115158081
5nt9SGLm,Kphb Fourth Phase Twd Hitech City,Kphb 4Th Phase,17.473173,78.387857
otPERE6r,Chandranaik Thanda Twd Hitech City,Chandranaik Thanda,17.466497659700867,78.38593840832435
92l2TILC,Cyber Towers Twd Rgia,Hitech City (Cyber Towers),17.450868,78.380396
rix52axq,Tcs Deccan Park Twd Biodiversity,Tcs Deccan Park,17.44630199004216,78.37762355851268
CAUwEprs,Mind Space Twd Rgia,Mind Space Centre,17.44180064392588,78.37724201282508
Gk4raAhc,Mind Space Twd Jntu,Mind Space Centre,17.441946727119486,78.37677866382495
EZfYLnK0,Chandrayangutta,Chandrayangutta,17.326966847396267,78.47596272861315
jEu8ygkt,Durga Nagar Twd Aramghar,Durga Nagar,17.3179941522541,78.4372558516071
QOgAri1N,Lakdaram Road Twd Zaheerabad,Lakdaram,17.55509268,78.18896804
gpemP4F7,Rudraram Twd Sangareddy,Rudhraram,17.56365648862838,78.16660877009328
UBeedL9T,Gitam University,Gitam University,17.549876114306652,78.16419042500294
eOVTjUWY,Rudraram Twd Patancheruvu,Rudhraram,17.5638035595563,78.1667164340615
VThbv9DF,Lakdaram Twd Hyderabad,Lakdaram,17.55670952,78.18506375
kp2atLnL,Lb Nagar (District Stop) Twd Vijayawada,Lb Nagar,17.343705326099684,78.55552911758424
WPvHzcUP,Saroornagar Twd Karmanghat,Saroor Nagar,17.354699388179647,78.53205241262911
FlJbvcOS,Milstone Twd Mangalparthy,Mile Stone,17.861210788591,78.317827007432
lysFc3vc,Saidabad X Road,Mile Stone,18.31318979362111,79.4710006368405
j5XvbmcP,Jail Saidabad,Jail Saidabad,17.3661,78.4973
XL6Fir58,Dabirpura Daewaza,Dabirpura Daewaza,17.3679,78.4856
2taLh1Y1,Saraswathi Nagar,Saraswathi Nagar,17.3583,78.5192
E2cvPdYo,Shankeshwar Bazar,Mile Stone,17.35934635710768,78.51992758068732
stX5GY7u,Bairagiguda,Bairagiguda,17.370299365064906,78.37494135089655
1VmCu0MF,Jalalpur Village,Jalalpur-Narayanpet,16.722989,77.436724
RB9msflD,Ts Model School Pochampally,Pochampally Model School,17.331,78.781
DQIWkyuz,Jalalpur Village,Mile Stone,18.117315,78.035147
FPHgIQYp,Milestone Revanpalle Twd Gouse Konda,Mile Stone,17.366618211278396,78.8306084272962
EV9yobjB,Gousekonda Tanda Mile Stone Twd Ramlingam Pally,Mile Stone,17.379111,78.850083
uQhvJ8ZS,Vankamamidi X Roads Twd Indriyala,Vanka Mamidi,17.36267707802552,78.86023544836937
Q2LuqFgy,Revanapally Mile Stone 2 Twd Vankamamidi X Road,Mile Stone,17.360778,78.854167
f1FoOK2X,Shivareddy Gudem,Shivareddy Gudem,17.367,78.871
MCNqrCy0,Indriyala,Indriyala,17.38665545,78.87046919
4VNGHoFL,Shivareddy Gudem Twd Dsnr,Shivareddy Gudem,17.368,78.87
sytRG4cv,Vankamamidi X Roads Twd Dsnr,Vanka Mamidi,17.36266626085194,78.86023107914171
vC3uHH7b,Milestone Gouse Konda Twd Revanpalle,Mile Stone,17.366577252251524,78.8306500011743
hAc9AQA9,Mehdipatnam Twd Tallagadda,Mehdipatnam,17.393915324556698,78.442412312793
2ZWzuUTZ,Tippu Khan Twd Shankarpally,Tippu Khan Bridge,17.37339446398915,78.40440270951166
jsSYaRZ9,Ramdevguda Twd Shankerpally,Ramdev Guda,17.375237328424227,78.39603963221296
lTSPV2d1,Milestone Twd Shamsabad,Mile Stone,17.264863262306196,78.39187132599437
ZVypS8OB,Vasavi Trends,Vasavi Trends,17.4147,78.3544
DJ1vRbAq,Taramathi Twd Shankarpally,Taramathi,17.376788559802506,78.37891370141307
AmuowBqz,Narsingi Twd Gandipet,Narsinghi,17.3842313438346,78.3614210039377
ijFEVs3A,Kokapet,Kokapet,17.4002,78.3531
wGQAO4BG,Gar It,Gar Kokapet,17.407045590534434,78.32993388340147
PwCq8mkM,Financial District Twd Gachibowli,Financial District,17.41552283,78.33384085
xDuZgZVu,Waverock,Waverock,17.419155472420485,78.34727159126253
ng3PytdJ,Icici Junction Twd Gachibowli,Icici Junction,17.422299365015,78.33820784694036
LpMsCjvi,Infosys Twd Gachibowli,Infosys,17.436867,78.347239
vc5Q9ECR,Gachibowli Twd Kondapur,Gachibowli,17.43966327848381,78.36356339708107
ktoX31SC,Ntr Stadium Ground,Ntr Stadium,17.411980556131542,78.48603980202913
fYXtw8ZZ,Karmanghat Twd Dilsukhnagar,Karmanghat,17.345169788317524,78.53189349174501
pWgyJcJa,Gaganpahad Twd Shamshabad,Gagan Pahad,17.2928908969124,78.417686383595
PBbH3tM0,Katedhan Twd Sriram Nagar,Katedan,17.311904117652308,78.43841317723063
IOGs7PmE,Katedhan Twd Aramghar,Katedan,17.31212018146879,78.43849892405991
uDEafHkm,Gaganpahad Twd Mehdipatnam,Gagan Pahad,17.2929197998045,78.4171591188256
nrauyNia,Bairammalguda Twd Mgbs,Bairammalguda,17.343029417848445,78.54275108481795
HJpF0xl0,Devalammanagaram Twd Allapuram,Devalamma Nagaram,17.243761477620595,78.8456314795156
6Rp2NGAM,Pipalpahad Twd Allapuram,Peepal Pahad,17.222032293348327,78.84791136094827
y1LZ3LBS,Allapuram Twd Narayanapuram,Allapur-Choutuppal,17.212901304636116,78.83087933032394
yXOkYBup,Yenuganti Thanda Twd Narayanapuram,Yenuganti Thanda,17.196393099545112,78.84333550697687
HEeSo7v7,Allapuram Twd Koyyalagudem,Allapur-Choutuppal,17.213167726165405,78.83082032203676
D1nNtrAD,Pipalpahad Twd Koyyalagudem,Peepal Pahad,17.222080118608577,78.84802092896443
CGbmEMkU,Devalammanagaram Twd Koyyalagudem,Devalamma Nagaram,17.2438,78.8455
g0WllZIY,Choutuppal Twd Mgbs,Choutuppal Bs,17.253828510516662,78.89410972595216
0Kx7ALo3,Nalgonda X Road Twd Mgbs,Nalgonda X Roads,17.37541400226647,78.4978777169661
CGjX4zn8,Abdhullapur Village Twd Kawadipalle,Abdullahpur Village,17.32044605308206,78.69236446666405
